"","ID","Fuel_Type","Station_Na","Street_Add","Intersecti","City","State","ZIP","Status_Cod","Groups_Wit","Expected_D","Access_Day","Cards_Acce","NG_Fill_Ty","NG_PSI","Latitude","Longitude","Date_Last","Updated_At","Owner_Type","Federal_Ag","Federal__1","Open_Date","NG_Vehicle","ID_2"
"1",296,"CNG","Sparq - Baton Rouge","8968 S Choctaw Dr","2 miles east of Airline Hwy/Highway 61","Baton Rouge","LA",70815,"E","Public - Credit card at all times","NA","24 hours daily","M V Comdata FuelMan GasCard Wright_Exp","Q",3600,30.471633,-91.087986,2017-12-05,"2017-12-05 16:28:23 UTC","P","NA","NA","NA","HD","1"
"2",434,"CNG","Kansas Gas Service","200 E 1st Ave","NA","Topeka","KS",66603,"E","Public - Credit card at all times","NA","24 hours daily","A D M V Voyager Wright_Exp","Q",0,39.058746,-95.667844,2017-12-05,"2017-12-05 16:36:46 UTC","T","NA","NA","NA","HD","2"
"3",456,"CNG","Clean Energy - Downtown Dallas","801 S Riverfront Blvd","Located on south end of Fuel City property.","Dallas","TX",75207,"E","Public - Credit card at all times","NA","24 hours daily; call 866-809-4869 for Clean Energy card","D M V CleanEnergy FuelMan Voyager Wright_Exp","Q",3600,32.7669635,-96.8075208,2017-07-06,"2017-07-06 17:16:47 UTC","P","NA","NA","NA","HD","3"
"4",477,"CNG","Clean Energy - Garland Independent School District","3526 Security St","I-635, north on Jupiter Rd, and right on Security St","Garland","TX",75042,"E","Public - Credit card at all times","NA","24 hours daily; call 866-809-4869 for Clean Energy card","D M V CleanEnergy FuelMan Voyager Wright_Exp","Q",0,32.897236,-96.684002,2017-08-02,"2017-08-02 18:48:01 UTC","P","NA","NA","NA","HD","4"
"5",522,"CNG","Questar Gas - Sandy","9242 S 500 W","Exit 298 off I-15","Sandy","UT",84070,"E","Public - Credit card at all times","NA","24 hours daily","M V GasCard Wright_Exp","Q",0,40.5835507,-111.9057236,2017-06-02,"2017-06-02 16:57:16 UTC","T","NA","NA","NA","HD","5"
"6",528,"CNG","Questar Gas - Salt Lake City","1150 W 200 S","200 S","Salt Lake City","UT",84104,"E","Public - Credit card at all times","NA","24 hours daily","M V GasCard Wright_Exp","Q",0,40.764976,-111.922291,2017-08-02,"2017-08-02 19:02:04 UTC","T","NA","NA","NA","HD","6"
"7",548,"CNG","Questar Gas - LW's Conoco","1050 W 200 N","Main St in Logan, west on 2nd N, and 10 blocks west","Logan","UT",84321,"E","Public - Credit card at all times","NA","24 hours daily","M V GasCard Wright_Exp","Q",3600,41.7351419,-111.8615584,2017-06-02,"2017-06-02 16:58:03 UTC","P","NA","NA","NA","HD","7"
"8",558,"CNG","Questar Gas - Market Express Sinclair","850 S Carbon Ave","Exit 241/ US-6","Price","UT",84501,"E","Public - Credit card at all times","NA","24 hours daily; Also accepts Sinclair card","D M V GasCard Wright_Exp Comdata","Q",3000,39.586198,-110.812887,2017-06-02,"2017-06-02 16:54:00 UTC","P","NA","NA","NA","HD","8"
"9",569,"CNG","Questar Gas - Chevron","1375 N Main St","Take I-70, then take exit 40, and the station is on the right","Richfield","UT",84701,"E","Public - Credit card at all times","NA","24 hours daily","M V GasCard Wright_Exp Comdata","Q",3000,38.786196,-112.08329,2017-06-02,"2017-06-02 16:54:00 UTC","P","NA","NA","NA","HD","9"
"10",575,"CNG","Questar Gas - Shell","915 E Saint George Blvd","I-15, take exit 8, go west on Saint George Blvd, station is between 900 East St and 1000 E","St. George","UT",84770,"E","Public - Credit card at all times","NA","24 hours daily","M V GasCard Wright_Exp","Q",0,37.109775,-113.563804,2017-06-02,"2017-06-02 16:54:00 UTC","P","NA","NA","NA","HD","10"
"11",648,"CNG","Clean Energy - Denver International Airport Rental Car","27700 E 78th Ave","I-70, exit onto Pena Blvd to DIA, follow signs to rental car return","Denver","CO",80249,"E","Public - Credit card at all times","NA","24 hours daily; call 866-809-4869 for Clean Energy card","D M V CleanEnergy FuelMan Voyager Wright_Exp","Q",0,39.8384176,-104.6784133,2017-08-02,"2017-08-02 19:09:51 UTC","P","NA","NA","NA","HD","11"
"12",792,"CNG","PG&E Grass Valley Service Center","788 Taylorville Rd","Exit Highway 49 at McKnight Way, west 2 blocks, and the station is on the right.","Grass Valley","CA",95949,"E","Public","NA","24 hours daily; PG&E payment card only. Contact PG&E LNG/CNG at 800-684-4648 x4 for payment card and station information.","NA","Q",0,39.200615,-121.062113,2017-06-02,"2017-06-02 16:57:33 UTC","T","NA","NA","NA","HD","12"
"13",801,"CNG","PG&E Bakersfield Service Center","4101 Wible Rd","Exit Highway 99 at White Land, go west to Wible Road, go south, and the station is on the right.","Bakersfield","CA",93313,"E","Public","NA","24 hours daily; PG&E payment card only. Contact PG&E LNG/CNG at 800-684-4648 x4 for payment card and station information.","NA","B",0,35.316494,-119.0394394,2017-06-02,"2017-06-02 16:13:29 UTC","T","NA","NA","NA","HD","13"
"14",806,"CNG","PG&E Fresno Service Center","3754 E California Ave","From Highway 99 northbound, exit at E Jensen Avenue, turn right and travel east 0.75 mile (turns into Jensen Bypass), left on S Pullman Avenue, left again onto E Jensen, follow the road around as it turns into S Orange Avenue, north on S Orange for 1 mil","Fresno","CA",93725,"E","Public","NA","24 hours daily; PG&E payment card only. Contact PG&E LNG/CNG at 800-684-4648 x4 for payment card and station information.","NA","B",0,36.7213057,-119.760617,2017-06-02,"2017-06-02 16:59:01 UTC","T","NA","NA","NA","HD","14"
"15",818,"CNG","PG&E Hayward Service Center","24300 Clawiter Rd","Exit Highway 92/San Mateo Bridge at Clawiter Road, go north, and the station is on the right. Or from exit I-880 at Winton Avenue, go west, left on Clawiter, and the station is on the left.","Hayward","CA",94545,"E","Public","NA","24 hours daily; PG&E payment card only. Contact PG&E LNG/CNG at 800-684-4648 x4 for payment card and station information.","NA","Q",0,37.6422954,-122.1182473,2017-06-02,"2017-06-02 16:54:40 UTC","T","NA","NA","NA","HD","15"
"16",832,"CNG","PG&E Stockton Service Center","4040 West Ln","Exit I-5/Highway 99 at Hammer Lane, go toward central Stockton, south on West Lane about 1.5 miles, and the station is on the left.","Stockton","CA",95204,"E","Public","NA","24 hours daily; PG&E payment card only. Contact PG&E LNG/CNG at 800-684-4648 x4 for payment card and station information.","NA","B",0,37.9902936,-121.2856386,2017-06-02,"2017-06-02 16:57:34 UTC","T","NA","NA","NA","HD","16"
"17",834,"CNG","PG&E Santa Rosa Service Center","3965 Occidental Rd","Exit Highway 101 and Highway 12, go west and exit at Stony Point Road, across intersection on Occidental Road, and the station is on the right.","Santa Rosa","CA",95401,"E","Public","NA","24 hours daily; PG&E payment card only. Contact PG&E LNG/CNG at 800-684-4648 x4 for payment card and station information.","NA","B",0,38.4286463,-122.7669412,2017-06-02,"2017-06-02 16:57:33 UTC","T","NA","NA","NA","HD","17"
"18",842,"CNG","PG&E Florin-Perkins Service Center","5555 Florin-Perkins Rd","Exit Highway 50 at Howe Avenue/Power Inn Road, south on Power Inn, left on Fruitridge Road, enter the facility on Fruitridge Road on the left past Florin-Perkins Rd intersection; enter through gate #4.","Sacramento","CA",95826,"E","Public - Card key at all times","NA","8am-4pm M-F; PG&E payment card only. Contact PG&E LNG/CNG at 800-684-4648 x4 for payment card and station information.","NA","Q",0,38.526126,-121.388521,2017-06-02,"2017-06-02 16:57:12 UTC","T","NA","NA","NA","HD","18"
"19",939,"CNG","Chula Vista Education Center","84 E J St","Exit I-805 at East H St, west on H, left on Hilltop Dr, left on J St, station on right, east of Arthur Ave.","Chula Vista","CA",91910,"E","Public","NA","5:30am-5pm M-F","Cash","B",3000,32.631424,-117.0580422,2017-07-06,"2017-07-06 17:27:49 UTC","P","NA","NA","NA","HD","19"
"20",945,"CNG","Poway Unified School District","13626 Twin Peaks Rd","Exit I-15 at Ted Williams Parkway, east 1 mile, turn right on Twin Peaks Road, 1 mile to school district center, station on left, west of Tiera Bonita Road.","Poway","CA",92064,"E","Public - Credit card at all times","NA","6am-6pm M-F (except holidays)","M V","B",0,32.9787858,-117.0358683,2017-05-04,"2017-05-04 13:18:24 UTC","LG","NA","NA","NA","HD","20"
"21",982,"CNG","Clean Energy - Waste Management - Moreno Valley","17700 Indian Ave","NA","Moreno Valley","CA",92551,"E","Public - Credit card at all times","NA","24 hours daily; call 866-809-4869 for Clean Energy card","D M V CleanEnergy FuelMan Voyager Wright_Exp","Q",0,33.862772,-117.234706,2017-07-06,"2017-12-20 16:06:26 UTC","P","NA","NA","NA","HD","21"
"22",995,"CNG","Clean Energy - Santa Monica SoCal Gas Station","1701 Stewart St","Exit I-10 at Centinella Blvd, left/north on Centinella, left/west on Olympic Blvd, right/north on Stewart St, and station is on the right","Santa Monica","CA",90404,"E","Public - Credit card at all times","NA","24 hours daily; call 866-809-4869 for Clean Energy card","D M V CleanEnergy FuelMan Voyager Wright_Exp","Q",0,34.031049,-118.466894,2015-03-04,"2017-12-07 19:26:42 UTC","P","NA","NA","NA","HD","22"
"23",997,"CNG","Clean Energy - LA County Sanitation District","13130 Crossroads Pkwy S","NA","City of Industry","CA",91746,"E","Public - Credit card at all times","NA","24 hours daily; call 866-809-4869 for Clean Energy card","D M V CleanEnergy Voyager Wright_Exp","Q",0,34.027723,-118.01633,2016-06-30,"2017-05-26 18:42:34 UTC","LG","NA","NA","NA","HD","23"
"24",1006,"CNG","SoCalGas - Van Nuys Base","16645 Saticoy St","Exit I-405 at Sherman Way, west on Sherman to Havenhurst Ave, north on Havenhurst, left on Saticoy Ave, and the station is on the right","Los Angeles","CA",91406,"E","Public - Credit card at all times","NA","24 hours daily","A D M V Voyager Wright_Exp","Q",3600,34.208433,-118.496549,2017-09-06,"2017-09-06 15:29:20 UTC","T","NA","NA","NA","HD","24"
"25",1009,"CNG","City of Covina - City Corporate Yard","534 N Barranca Ave","Exit I-10 at Barranca Ave and go north, station is just past San Bernardino Rd on the right","Covina","CA",91723,"E","Public - Credit card at all times","NA","6am-4:30pm M-Th","A D M V Voyager Wright_Exp","Q",0,34.0914803,-117.8809546,2017-05-04,"2017-05-04 13:18:13 UTC","LG","NA","NA","NA","HD","25"
"26",1013,"CNG","Titan NGV Fueling - South Coast Air Quality Management District","21865 Copley Dr","Off Hwy 60; take the Grand Ave Exit and turn right onto Golden Spring Drive; or take the Brea Canyon Exit and turn left onto Golden Spring Drive.  Head toward the SCQMD and turn onto Copley Drive at the stop light.  Turn at the first entrance on the righ","Diamond Bar","CA",91765,"E","Public - Credit card at all times","NA","24 hours daily; station can accommodate heavy-duty vehicles, except 50 ft tractor-trailers. See http://www.titanngv.com/ for more details.","A D M V FuelMan Voyager Wright_Exp Comdata","Q",0,34.002107,-117.8290451,2017-05-04,"2017-05-04 13:17:47 UTC","LG","NA","NA","NA","HD","26"
"27",1014,"CNG","SunLine Transit Agency","32505 Harry Oliver Trail","Exit I-10 at Ramon Road, go east on Ramon, east on Warner, north on Harry Oliver Trail, station on left.","Thousand Palms","CA",92276,"E","Public - Credit card at all times","NA","24 hours daily","M V Voyager Wright_Exp","Q",0,33.8153399,-116.3942833,2017-06-02,"2017-06-02 16:23:07 UTC","P","NA","NA","NA","HD","27"
"28",1022,"CNG","Clean Energy - Irvine City Yard","6427 Oak Canyon","Exit I-5 at Sand Canyon Rd south on Sand Canyon, right on Oak Canyon, and station is in the City yard facility on the right.","Irvine","CA",92618,"E","Public - Credit card at all times","NA","24 hours daily; call 866-809-4869 for Clean Energy card","D M V CleanEnergy FuelMan Voyager Wright_Exp","Q",0,33.675194,-117.765146,2017-07-06,"2017-07-06 17:16:52 UTC","P","NA","NA","NA","HD","28"
"29",1032,"CNG","Antelope Valley School Bus Transit","670 West Ave L-8","A half a block south of W Avenue, L-14.","Lancaster","CA",93534,"E","Public - Credit card at all times","NA","24 hours daily","M V Voyager Wright_Exp","Q",0,34.653024,-118.142653,2017-06-02,"2017-06-02 16:57:28 UTC","LG","NA","NA","NA","HD","29"
"30",1083,"CNG","Clean Energy - RTC Losee","3333 Losee Rd","I-15, exit onto Cheyenne Ave E, right on Losee Rd, and left on Sharp Cir","North Las Vegas","NV",89124,"E","Public - Credit card at all times","NA","24 hours daily; call 866-809-4869 for Clean Energy card","D M V CleanEnergy FleetOne FuelMan Voyager Wright_Exp","Q",0,36.220567,-115.125553,2017-08-02,"2017-08-02 18:48:57 UTC","LG","NA","NA","NA","HD","30"
"31",1251,"CNG","Clean Energy - Los Angeles International Airport","10400 Aviation Blvd","Exit I-405 at Century Blvd, west toward LAX, left on Aviation Blvd, station at corner of 104th St on left","Los Angeles","CA",90045,"E","Public - Credit card at all times","NA","24 hours daily; call 866-809-4869 for Clean Energy card","D M V CleanEnergy FuelMan Voyager Wright_Exp","Q",0,33.941383,-118.378485,2017-07-06,"2017-07-06 17:16:53 UTC","P","NA","NA","NA","HD","31"
"32",1286,"CNG","Washington Elementary School District","12641 N 39th Ave","I-17 N to Cactus, west to 39th Ave, north on 39th, pumps are at the Service Center","Phoenix","AZ",85029,"E","Public - Credit card at all times","NA","24 hours daily","A D M V Voyager Wright_Exp","Q",0,33.6013089,-112.1419547,2017-09-06,"2017-09-06 15:17:54 UTC","LG","NA","NA","NA","HD","32"
"33",1347,"CNG","PG&E Chico Service Center","11239 Midway","Exit Hwy 99 at Park Ave., then go west to Midway and turn south (left). Station on right.","Chico","CA",95928,"E","Public","NA","24 hours daily; PG&E payment card only. Contact PG&E LNG/CNG at 800-684-4648 x4 for payment card and station information.","NA","Q",0,39.7113071,-121.8120554,2017-06-02,"2017-06-02 16:57:36 UTC","T","NA","NA","NA","HD","33"
"34",1349,"CNG","PG&E Vacaville Service Center","158 Peabody Rd","Exit I-80 at Peabody E or Mason Road/Travis AFB W. From I-80 W, right on Mason and bear right, right on Peabody, and the station is on the right.","Vacaville","CA",95687,"E","Public","NA","24 hours daily; PG&E payment card only. Contact PG&E LNG/CNG at 800-684-4648 x4 for payment card and station information.","NA","Q",0,38.3507074,-121.9776818,2017-06-02,"2017-06-02 16:57:34 UTC","T","NA","NA","NA","HD","34"
"35",1359,"CNG","City of Banning","176 E Lincoln St","NA","Banning","CA",92220,"T","TEMPORARILY UNAVAILABLE (Public - Credit card at all times)","NA","24 hours daily; heavy-duty vehicles must unhitch trailer to reach the dispenser","A D M V Voyager Wright_Exp","Q",0,33.921745,-116.874679,2017-12-05,"2017-12-05 16:31:25 UTC","LG","NA","NA","NA","HD","35"
"36",1370,"CNG","City of Ontario - City Yard","1440 S Cucamonga St","Exit Highway 60 at Euclid, go north, right/east on Francis, left/north on Bon View, access from Cucamonga St","Ontario","CA",91761,"E","Public - Credit card at all times","NA","24 hours daily","M V","Q",3600,34.047068,-117.634077,2017-05-04,"2017-05-04 13:13:13 UTC","LG","NA","NA","NA","HD","36"
"37",7037,"CNG","United Parcel Service","1735 S Turner Ave","Exit I-10 at Haven Ave, go south, right/west on Jurupa St, left/south on Turner. From Highway 60, exit at Archibald Ave, go north, right/east on Jurupa St, right/south on Turner Ave, station is on the left.","Ontario","CA",91761,"E","Public - Card key at all times","NA","24 hours daily; contact station at 909-827-9944 to obtain a FleetStar keycard; Also accepts FleetStar","NA","Q",0,34.0455967,-117.5827754,2017-07-06,"2017-07-06 17:23:18 UTC","P","NA","NA","NA","HD","37"
"38",7041,"CNG","Clean Energy - City of Tulare","3989 S K St","South on Hwy 99, exit at Paige going west, 1 mile to South K St, go 1 mile south; LCNG station","Tulare","CA",93274,"E","Public - Credit card at all times","NA","24 hours daily; call 866-809-4869 for Clean Energy card","D M V CleanEnergy FuelMan Voyager Wright_Exp","Q",3600,36.168941,-119.336803,2017-02-01,"2017-02-01 20:06:39 UTC","LG","NA","NA","NA","HD","38"
"39",12799,"CNG","City of Victorville","14201 McArt Rd","NA","Victorville","CA",92392,"E","Public - Credit card at all times","NA","24 hours daily; station can accommodate heavy-duty vehicles with a maximum of 55 feet in length","A D M V","Q",0,34.508713,-117.332343,2017-05-04,"2017-05-04 13:20:53 UTC","LG","NA","NA","NA","HD","39"
"40",12840,"CNG","Kings Canyon Unified School District","1600 S Apple Ave","NA","Reedley","CA",93654,"E","Public - Credit card at all times","NA","8am-9pm M-F","M V Voyager Wright_Exp","Q",0,36.5904606,-119.4282111,2017-10-03,"2017-10-03 16:35:03 UTC","LG","NA","NA","NA","HD","40"
"41",12841,"CNG","City of Delano","725 S Lexington St","From Highway 99, take the exit at Woolomes Ave, turn east on Woolomes (left from southbound, right from northbound and proceed to Lexington), turn right on Lexington St, and the station is on the right.","Delano","CA",93215,"E","Public - Credit card at all times","NA","24 hours daily","D M V Voyager Wright_Exp","Q",0,35.749926,-119.241121,2017-05-04,"2017-05-04 13:18:49 UTC","LG","NA","NA","NA","HD","41"
"42",18943,"CNG","City of Victorville","16690 D St","From I-15 exit at D Street and go east and turn left at the signal at 4th Street, station on left","Victorville","CA",92395,"E","Public - Credit card at all times","NA","24 hours daily; station can accommodate heavy-duty vehicles with a maximum of 40 feet in length","A D M V","Q",0,34.5395233,-117.2981308,2017-05-04,"2017-05-04 13:20:43 UTC","LG","NA","NA","NA","HD","42"
"43",20888,"CNG","Clean Energy - University of New Mexico","1140 University Blvd NE","East of the intersection of University Blvd NE and Camino de Salud.","Albuquerque","NM",87102,"E","Public - Credit card at all times","NA","24 hours daily; call 866-809-4869 for Clean Energy card","A D M V CleanEnergy FleetOne FuelMan Voyager Wright_Exp","Q",0,35.093865,-106.626046,2017-11-02,"2017-11-02 17:34:37 UTC","SG","NA","NA","NA","HD","43"
"44",21660,"CNG","Trillium CNG - Mount Diablo Unified School District","2352 Bisso Ln","Exit Highway 242 on Concord Ave, west on Concord Ave 1 block to Bisso Ln, right on Bisso, past Home Depot, and turn into Mt Diablo Service Center Parking.","Concord","CA",94520,"E","Public - Credit card at all times","NA","24 hours daily","M V","Q",0,37.982154,-122.0464,2017-01-11,"2017-12-20 14:12:02 UTC","P","NA","NA","NA","HD","44"
"45",21975,"CNG","Clean Energy - Dallas Fort Worth Airport South","2474 N Employee Rd","At E 30th St, off Airport Service Rd","Grapevine","TX",76051,"E","Public - Credit card at all times","NA","24 hours daily; call 866-809-4869 for Clean Energy card","D M V CleanEnergy FuelMan Voyager Wright_Exp","Q",0,32.876733,-97.039256,2017-08-02,"2017-08-02 18:57:08 UTC","P","NA","NA","NA","HD","45"
"46",21985,"CNG","California Clean Fuels","15330 Woodruff Ave","NA","Bellflower","CA",90706,"E","Public - Credit card at all times","NA","24 hours daily","A D M V Voyager Wright_Exp","B",3600,33.893163,-118.117297,2017-05-04,"2017-05-04 13:19:21 UTC","P","NA","NA","NA","HD","46"
"47",22795,"CNG","Trillium CNG - Mineta San Jose International Airport","2151 Airport Blvd","At Rental Car Center Road. Station is located past all terminals. Signs will direct you.","San Jose","CA",95110,"E","Public - Credit card at all times","NA","24 hours daily","D M V Trillium","Q",0,37.367444,-121.933097,2016-10-04,"2017-12-08 15:34:02 UTC","LG","NA","NA","NA","HD","47"
"48",23211,"CNG","Questar Gas - Flying J Travel Plaza - Springville","1460 N 1750 W","I-15, exit 261","Springville","UT",84663,"E","Public - Credit card at all times","NA","24 hours daily","M V GasCard Wright_Exp Comdata","Q",3600,40.187302,-111.642533,2017-06-02,"2017-06-02 16:57:10 UTC","P","NA","NA","NA","HD","48"
"49",23212,"CNG","Questar Gas - 7-Eleven","7953 S Airport Rd","NA","West Jordan","UT",84088,"E","Public - Credit card at all times","NA","24 hours daily","M V GasCard Wright_Exp","Q",3600,40.6075651,-111.9961327,2017-06-02,"2017-06-02 16:57:03 UTC","P","NA","NA","NA","HD","49"
"50",23213,"CNG","Salt Lake City International Airport","600 N 3700 W","I-80, airport exit","Salt Lake City","UT",84116,"E","Public - Credit card at all times","NA","24 hours daily","M V GasCard Wright_Exp","Q",3600,40.781373,-111.979973,2017-08-02,"2017-08-02 19:02:55 UTC","P","NA","NA","NA","HD","50"
"51",23214,"CNG","Alpine School District","490 N State St","NA","Lindon","UT",84042,"E","Public - Credit card at all times","NA","24 hours daily","M V","Q",3600,40.346374,-111.725059,2017-12-05,"2017-12-05 16:34:49 UTC","SG","NA","NA","NA","HD","51"
"52",23215,"CNG","Utah State University","900 E 1400 N","NA","Logan","UT",84341,"E","Public - Credit card at all times","NA","24 hours daily","M V","Q",3600,41.7572483,-111.8114715,2017-12-05,"2017-12-05 16:39:56 UTC","SG","NA","NA","NA","HD","52"
"53",23216,"CNG","Utah Department of Transportation","4501 S 2700 W","Constitution Blvd","West Valley City","UT",84119,"E","Public - Credit card at all times","NA","8am-6pm daily","M V","Q",3600,40.6712254,-111.9567323,2017-12-05,"2017-12-05 16:32:46 UTC","SG","NA","NA","NA","HD","53"
"54",23218,"CNG","Granite School District","3000 Parkway Blvd","NA","West Valley City","UT",84119,"E","Public - Credit card at all times","NA","24 hours daily","M V","Q",3600,40.712201,-111.963404,2017-12-05,"2017-12-05 16:26:56 UTC","SG","NA","NA","NA","HD","54"
"55",23219,"CNG","Questar Gas - City of Murray","4646 S 500 W","Exit 301/I-15","Murray","UT",84123,"E","Public - Credit card at all times","NA","24 hours daily","M V GasCard Wright_Exp","Q",0,40.6716,-111.905686,2017-06-02,"2017-06-02 16:13:39 UTC","LG","NA","NA","NA","HD","55"
"56",25425,"CNG","City of Corona","430 N Cota St","NA","Corona","CA",92880,"E","Public - Credit card at all times","NA","24 hours daily","M V Voyager Wright_Exp","Q",3600,33.8859542,-117.5718998,2017-05-04,"2017-05-04 13:22:24 UTC","LG","NA","NA","NA","HD","56"
"57",25437,"CNG","City of Riverside","8095 Lincoln Ave","From the 91 Freeway, turn off on Adams Auto Center Dr, go east, left on Lincoln, left on Saint Lawrence, station on the left.","Riverside","CA",92504,"E","Public - Credit card at all times","NA","24 hours daily","A D M V Voyager","Q",0,33.92399216,-117.4119492,2017-05-04,"2017-05-04 13:20:58 UTC","LG","NA","NA","NA","HD","57"
"58",25483,"CNG","Clean Energy - San Francisco Airport","790 N McDonnell Rd","At San Bruno Ave, in front of United Airlines maintenance building.","San Francisco","CA",94128,"E","Public - Credit card at all times","NA","24 hours daily; call 866-809-4869 for Clean Energy card","D M V CleanEnergy FleetOne FuelMan Voyager Wright_Exp","Q",0,37.6327433,-122.3983687,2017-07-06,"2017-07-06 17:16:47 UTC","P","NA","NA","NA","HD","58"
"59",25600,"CNG","SoCalGas - Azusa Base","950 N Todd Ave","Exit I-210 at Irwindale Ave, north to Foothill Blvd and turn right, left on N Todd Ave, and the station is on the right","Azusa","CA",91702,"E","Public - Credit card at all times","NA","24 hours daily","A D M V Voyager Wright_Exp","Q",3600,34.1386428,-117.9239054,2017-09-06,"2017-09-06 15:29:24 UTC","T","NA","NA","NA","HD","59"
"60",25601,"CNG","Trillium CNG - City of Placentia Corporate Yard","2999 E La Jolla St","Exit Highway 57 at E Orangethorpe Ave and go east, turn right on Melrose St, then left on La Jolla St, and the station is on the left.","Anaheim","CA",92806,"E","Public - Credit card at all times","NA","24 hours daily","A D M V Trillium Voyager Wright_Exp","Q",0,33.860731,-117.864306,2017-01-11,"2017-12-20 14:16:12 UTC","P","NA","NA","NA","HD","60"
"61",25763,"CNG","SoCalGas - Lancaster Base","44416 N Division St","From Highway 14 N, exit at 20th St W and proceed north to Avenue J, go right on Avenue J and take Division St, and the station is on the left.","Lancaster","CA",93535,"E","Public - Credit card at all times","NA","24 hours daily","A D M V Voyager Wright_Exp","Q",3600,34.689589,-118.130371,2017-09-06,"2017-09-06 15:27:08 UTC","T","NA","NA","NA","HD","61"
"62",25875,"CNG","Clean Energy - Tucson International Airport","3034 E Corona Rd","Between S Tucson Blvd and S Country Club Rd","Tucson","AZ",85756,"E","Public - Credit card at all times","NA","24 hours daily; call 866-809-4869 for Clean Energy card","D M V CleanEnergy FuelMan Voyager Wright_Exp","Q",0,32.123171,-110.92722,2017-08-02,"2017-08-02 18:48:36 UTC","P","NA","NA","NA","HD","62"
"63",26314,"CNG","Clean Energy - Yucca Valley - Park n Ride Transit Facility","7485 Kickapoo Trail","At intersection of State Rt 62 and Kickapoo Trail","Yucca Valley","CA",92284,"E","Public - Credit card at all times","NA","24 hours daily; call 866-809-4869 for Clean Energy card","D M V CleanEnergy FuelMan Voyager Wright_Exp","Q",0,34.117227,-116.45764,2017-07-06,"2017-07-06 17:20:28 UTC","P","NA","NA","NA","HD","63"
"64",27973,"CNG","Trillium CNG - City of Berkeley","1101 2nd St","I-580, Exit 12.","Berkeley","CA",94710,"E","Public - Credit card at all times","NA","24 hours daily","A M V Trillium Voyager","Q",0,37.881566,-122.306821,2016-10-04,"2017-12-20 14:06:17 UTC","P","NA","NA","NA","HD","64"
"65",27976,"CNG","Trillium CNG - Visalia Unified School District","2425 W Houston Ave","From CA-99 S, merge onto CA-198 E toward Visalia, take Demaree Street exit, stay straight to go onto W Noble Avenue, turn left onto S Demaree Street/Road 108 and go 1 mile, then turn right on Houston Avenue.","Visalia","CA",93291,"E","Public - Credit card at all times","NA","24 hours daily","M V Trillium","Q",0,36.3419266,-119.3141709,2017-02-01,"2017-02-01 20:09:17 UTC","LG","NA","NA","NA","HD","65"
"66",27978,"CNG","Trillium CNG - Specialty Solid Waste & Recycling","3354 Thomas Rd","Exit Highway 101 W at San Thomas Expressway/Montague Expressway, go north on Montague Expressway, then right on Laurelwood Road, left on Thomas Road, and the station is on the right.","Santa Clara","CA",95054,"E","Public - Credit card at all times","NA","24 hours daily; also accepts Pinnacle Fleet","D M V","B",0,37.3817758,-121.9577843,2016-10-04,"2017-10-16 21:06:28 UTC","P","NA","NA","NA","HD","66"
"67",28177,"CNG","Questar Gas - Sinclair","590 N 1500 W","Exit 272 off I-15","Orem","UT",84057,"E","Public - Credit card at all times","NA","24 hours daily; Also accepts Sinclair card","A D M V GasCard Wright_Exp","Q",3000,40.308042,-111.731246,2017-06-02,"2017-06-02 16:54:10 UTC","P","NA","NA","NA","HD","67"
"68",28523,"CNG","City of Barstow","100 N Sandstone Ct","LCNG station. I-15 to Highway 58, right on W Main St, left on Sandstone Ct.","Barstow","CA",92311,"E","Public - Credit card at all times","NA","24 hours daily; Also accepts Fleetstar card","M V Voyager","Q",3600,34.88657,-117.078969,2016-03-07,"2017-12-20 16:24:41 UTC","LG","NA","NA","NA","HD","68"
"69",29168,"CNG","Clean Energy - Downtown Tucson","1744 E Winsett St","Kino Blvd and Winsett St","Tucson","AZ",85719,"E","Public - Credit card at all times","NA","24 hours daily; call 866-809-4869 for Clean Energy card","D M V CleanEnergy FuelMan Voyager Wright_Exp","Q",0,32.214543,-110.945209,2017-08-02,"2017-08-02 18:58:20 UTC","P","NA","NA","NA","HD","69"
"70",29350,"CNG","Robertson's Palmdale Honda","455 Auto Vista Dr","Exit I-210 at Sierra Madre Villa and turn north, proceed to Foothill Blvd and turn right, and the station is on the right.","Palmdale","CA",93551,"E","Public - Credit card at all times","NA","24 hours daily","D M V Voyager","Q",0,34.5937334,-118.1381027,2017-05-04,"2017-05-04 13:18:25 UTC","P","NA","NA","NA","HD","70"
"71",30616,"CNG","Hutch's C-Store #801","515 S Main St","NA","Elk City","OK",73644,"E","Public - Credit card at all times","NA","24 hours daily","A D M V Voyager Wright_Exp","Q",3600,35.4057939,-99.4049236,2017-11-02,"2017-11-02 17:35:28 UTC","P","NA","NA","NA","HD","71"
"72",30618,"CNG","Clean Energy - Canoga Park","7711 Canoga Ave","From 101, exit Topanga Canyon Blvd headed north, right on Saticoy St, and left on Canoga Ave.","Canoga Park","CA",91304,"E","Public - Credit card at all times","NA","24 hours daily; call 866-809-4869 for Clean Energy card","D M V CleanEnergy FuelMan Voyager Wright_Exp","Q",0,34.209938,-118.597508,2017-07-06,"2017-07-06 17:17:35 UTC","P","NA","NA","NA","HD","72"
"73",30619,"CNG","Clean Energy - Los Angeles Sanitation District","23924 Figueroa St","I-110 S, exit Sepulveda, left under the freeway, corner of Sepulveda and Figueroa.","Carson","CA",90745,"E","Public - Credit card at all times","NA","24 hours daily; call 866-809-4869 for Clean Energy card","D M V CleanEnergy FuelMan Voyager Wright_Exp","Q",0,33.807567,-118.284438,2017-07-06,"2017-07-06 17:16:50 UTC","LG","NA","NA","NA","HD","73"
"74",30622,"CNG","Trillium CNG - City of Austin","2400 Business Center Dr","Surrounded by S Industrial Lane on West and Todd Lane on East.  Northside of HWY 71 Todd Lane is called Burleson. Located across from City Waste Services Facility.","Austin","TX",78744,"E","Public - Credit card at all times","NA","24 hours daily; station fuels up to class 12 tractors, but class 9-12 tractors will have to detach the trailer to get in the driveway","M V","Q",3600,30.2130865,-97.7383739,2016-10-04,"2017-12-18 03:28:10 UTC","LG","NA","NA","NA","HD","74"
"75",30623,"CNG","Trillium CNG","550 Milam St","NA","Beaumont","TX",77701,"E","Public - Credit card at all times","NA","7am-8pm daily; Also accepts Pinnacle Fleet","M V","B",0,30.0776518,-94.0963194,2017-04-06,"2017-04-06 14:26:35 UTC","LG","NA","NA","NA","HD","75"
"76",30626,"CNG","Clean Energy - Long Beach Gas and Oil Department","2951 Junipero Ave","From I-405 Northbound, exit Cherry Ave S/Temple Ave, right on Temple Ave, left on Spring St and left on Junipero Ave. From I-405 southbound, exit Cherry Ave N, left on Spring St, then quick right on Junipero Ave, and the station will be on the left.","Long Beach","CA",90755,"E","Public - Credit card at all times","NA","24 hours daily; call 866-809-4869 for Clean Energy card","D M V CleanEnergy Voyager Wright_Exp","Q",3600,33.810937,-118.163074,2017-05-04,"2017-05-04 13:18:04 UTC","P","NA","NA","NA","HD","76"
"77",30628,"CNG","Clean Energy - Santa Ana - SoCal Gas Base","3210 Maple St","Exit Hwy 55 at MacArthur Blvd and go west to Main St, turn right on Main, right on Columbine, left on Maple, and the station on the left","Santa Ana","CA",92707,"E","Public - Credit card at all times","NA","24 hours daily; call 866-809-4869 for Clean Energy card","D M V CleanEnergy FuelMan Voyager Wright_Exp","B",0,33.703906,-117.863732,2017-07-06,"2017-07-06 17:16:56 UTC","P","NA","NA","NA","HD","77"
"78",30629,"CNG","Clean Energy - San Leandro","8515 San Leandro St","From 880 exit Hegenberger Rd, go east to San Leandro St, turn right (south), drive 0.5 mile to the station on the right side","Oakland","CA",94621,"E","Public - Credit card at all times","NA","24 hours daily; call 866-809-4869 for Clean Energy card","D M V CleanEnergy FleetOne FuelMan Voyager Wright_Exp","Q",0,37.746558,-122.188524,2017-07-06,"2017-07-06 17:16:55 UTC","P","NA","NA","NA","HD","78"
"79",30630,"CNG","Clean Energy - Port of Oakland","209 Brush St","From 880 exit Market St, travel toward Harbor terminals, turn left on 5th St, then turn right on Brush St","Oakland","CA",94607,"E","Public - Credit card at all times","NA","24 hours daily; call 866-809-4869 for Clean Energy card","D M V CleanEnergy FuelMan Voyager Wright_Exp","Q",0,37.798995,-122.28338,2017-07-06,"2017-07-06 17:16:54 UTC","P","NA","NA","NA","HD","79"
"80",30832,"CNG","PG&E Merced Service Center","624 W 15th St","From Highway 99 northbound, exit at Martin Luther King, turn right on MLK and left on 5th Street, and the station in the PG&E yard will be on the left. From Highway 99 southbound, exit at R Street, left on R Street, then right on 15th Street to the stati","Merced","CA",95340,"E","Public","NA","24 hours daily; PG&E payment card only. Contact PG&E LNG/CNG at 800-684-4648 x4 for payment card and station information.","NA","Q",0,37.2999099,-120.4867831,2017-06-02,"2017-06-02 16:54:39 UTC","T","NA","NA","NA","HD","80"
"81",32513,"CNG","Kern County Superintendent of Schools","705 S Union Ave","One mile east of the 58 and 99 junction.","Bakersfield","CA",93307,"E","Public - Credit card at all times","NA","24 hours daily","A D M V FuelMan Voyager Wright_Exp","Q",0,35.3481149,-119.0029454,2017-02-01,"2017-02-01 20:08:42 UTC","LG","NA","NA","NA","HD","81"
"82",32669,"CNG","City of San Bernardino","187 S Pershing Ave","Corner of Redding and Pershing.","San Bernardino","CA",92408,"E","Public - Credit card at all times","NA","24 hours daily","M V Voyager Wright_Exp","Q",3600,34.0983685,-117.288461,2017-07-06,"2017-07-06 17:26:32 UTC","LG","NA","NA","NA","HD","82"
"83",32831,"CNG","City of Riverside","5961 Acorn St","At the intersection of Acorn and Jurupa.","Riverside","CA",92504,"E","Public - Credit card at all times","NA","24 hours daily; Also accepts Diners Club","A D M V Voyager Wright_Exp","Q",3600,33.961278,-117.453964,2017-06-02,"2017-06-02 16:11:55 UTC","LG","NA","NA","NA","HD","83"
"84",33204,"CNG","Questar Gas - LW's Travel Plaza","1674 W 1100 S","Exit 362 off I-15","Perry","UT",84302,"E","Public - Credit card at all times","NA","24 hours daily","M V GasCard Wright_Exp Comdata","Q",3600,41.485409,-112.057816,2017-06-02,"2017-06-02 16:57:16 UTC","P","NA","NA","NA","HD","84"
"85",33205,"CNG","Questar Gas - RB's Fuel Stop - Phillips 66","527 S 700 W","Exit 316 off I-15","Woods Cross","UT",84087,"E","Public - Credit card at all times","NA","24 hours daily","M V GasCard Wright_Exp","Q",0,40.88367,-111.899098,2017-06-02,"2017-06-02 16:56:55 UTC","P","NA","NA","NA","HD","85"
"86",33387,"CNG","Rainbow Disposal","17121 Nichols St","Warner Ave and Beach Blvd.","Huntington Beach","CA",92647,"E","Public - Card key after hours","NA","6am-6pm M-F, 6am-4pm Sat; contact station to arrange for card key, heavy-duty vehicles should enter from the south entrance.","M V","Q",3600,33.7131637,-117.995954,2016-06-03,"2017-12-08 00:16:48 UTC","P","NA","NA","NA","HD","86"
"87",33425,"CNG","City of San Fernando","120 N Macneil St","NA","San Fernando","CA",91340,"E","Public - Credit card at all times","NA","24 hours daily","A D M V Voyager Wright_Exp","Q",0,34.283749,-118.438878,2017-05-04,"2017-05-04 13:15:54 UTC","LG","NA","NA","NA","HD","87"
"88",33533,"CNG","Clean Energy - City of Glendale","1761 Gardena Ave","Adjacent to the Glendale Amtrak/Metrolink Transportation Center.","Glendale","CA",91204,"E","Public - Credit card at all times","NA","24 hours daily; call 866-809-4869 for Clean Energy card","D M V CleanEnergy FleetOne FuelMan Voyager Wright_Exp","Q",0,34.122424,-118.256675,2017-07-06,"2017-07-06 17:16:51 UTC","P","NA","NA","NA","HD","88"
"89",33899,"CNG","Clean Energy - Oklahoma State University","2221 W Lakeview Dr","At Western Ave","Stillwater","OK",74075,"E","Public - Credit card at all times","NA","24 hours daily; call 866-809-4869 for Clean Energy card","D M V CleanEnergy FleetOne FuelMan Voyager Wright_Exp","Q",0,36.144924,-97.086989,2017-08-02,"2017-08-02 18:57:54 UTC","P","NA","NA","NA","HD","89"
"90",34320,"CNG","Valley Vista Services","1037 S Hatcher St","NA","City of Industry","CA",91748,"E","Public - Credit card at all times","NA","24 hours daily","D M V Voyager Wright_Exp","Q",3600,34.003214,-117.923264,2016-05-09,"2017-06-23 22:37:26 UTC","P","NA","NA","NA","HD","90"
"91",34474,"CNG","Clean Energy - La Cienega","1004 S La Cienega Blvd","NA","Los Angeles","CA",90035,"E","Public - Credit card at all times","NA","24 hours daily; call 866-809-4869 for Clean Energy card","D M V CleanEnergy FuelMan Voyager Wright_Exp","Q",3600,34.059388,-118.375858,2017-12-05,"2017-12-05 16:26:26 UTC","P","NA","NA","NA","HD","91"
"92",34828,"CNG","OnCue Express #191","4920 N Western Ave","NW 49th at Western Ave, 5 blocks south of I-44.","Oklahoma City","OK",73118,"E","Public - Credit card at all times","NA","24 hours daily","M V FuelMan Voyager Wright_Exp","Q",3600,35.521076,-97.529838,2017-11-02,"2017-11-02 17:26:56 UTC","P","NA","NA","NA","HD","92"
"93",34832,"CNG","City of Wasco","501 North F St","NA","Wasco","CA",93280,"E","Public - Credit card at all times","NA","24 hours daily; contact station at 661-756-7236 for arrangements; Also accepts card key","M V","Q",3600,35.5968666,-119.333737,2016-06-03,"2017-04-25 21:43:28 UTC","LG","NA","NA","NA","HD","93"
"94",35007,"CNG","ARCO","28662 Camino Capistrano","West of Interstate 5 off of the Avery Parkway exit.","San Juan Capistrano","CA",92675,"E","Public - Credit card at all times","NA","24 hours daily","A D M V Voyager","Q",3600,33.54745,-117.67385,2017-06-02,"2017-06-02 16:14:06 UTC","P","NA","NA","NA","HD","94"
"95",35073,"CNG","Clean Energy - Port of Long Beach","3400 I St","At intersection of W Anaheim St & E I St; LCNG station.","Wilmington","CA",90744,"E","Public - Credit card at all times","NA","24 hours daily; call 866-809-4869 for Clean Energy card; Also accepts MasterCard Fleet card and Visa Fleet card.","D M V CleanEnergy FuelMan Voyager Wright_Exp Comdata FleetOne","Q",3600,33.78311,-118.222,2017-03-03,"2017-03-03 19:46:10 UTC","P","NA","NA","NA","HD","95"
"96",35075,"CNG","City of Porterville","555 N Prospect St","NA","Porterville","CA",93257,"E","Public - Credit card at all times","NA","24 hours daily","M V","Q",3600,36.0760996,-119.0447136,2017-05-04,"2017-05-04 13:13:04 UTC","LG","NA","NA","NA","HD","96"
"97",35131,"CNG","Clean Energy - Ontario International Airport","3350 John Bangs Dr","NA","Ontario","CA",91761,"E","Public - Credit card at all times","NA","24 hours daily; call 866-809-4869 for Clean Energy card","D M V CleanEnergy Voyager Wright_Exp","Q",0,34.0610264,-117.5788749,2017-07-06,"2017-07-06 17:16:55 UTC","P","NA","NA","NA","HD","97"
"98",35138,"CNG","City of Corpus Christi Gas Department","2525 Hygeia St","Located at city service center","Corpus Christi","TX",78415,"E","Public - Card key at all times","NA","24 hours daily; contact Corpus Christi Gas Department for card key","Proprietor","B",3600,27.7301673,-97.4263829,2017-08-02,"2017-08-02 19:05:57 UTC","LG","NA","NA","NA","HD","98"
"99",35385,"CNG","Questar Gas - Chevron","40 N 6300 W","Exit 16 / I-15","Hurricane","UT",84737,"E","Public - Credit card at all times","NA","24 hours daily","M V GasCard Wright_Exp Comdata","Q",3600,37.161753,-113.435394,2017-06-02,"2017-06-02 16:57:02 UTC","P","NA","NA","NA","HD","99"
"100",35418,"CNG","Total Express","16401 N Rockwell Ave","NW 164th and Rockwell Ave, Suite 100.","Edmond","OK",73013,"E","Public - Credit card after hours","NA","5:30am-10pm M-Sat, 7am-10pm Sun","M V Cash Checks","Q",3600,35.6370168,-97.6386481,2017-10-03,"2017-10-03 16:22:32 UTC","P","NA","NA","NA","HD","100"
"101",35419,"CNG","Ada Travel Stop West","201 Latta Rd","NA","Ada","OK",74820,"E","Public","NA","24 hours daily","M V Cash Checks Voyager Wright_Exp","Q",0,34.773152,-96.697489,2017-10-03,"2017-10-03 16:31:42 UTC","LG","NA","NA","NA","HD","101"
"102",35598,"CNG","Orange County Public Works","2023 W Collins Ave","At intersection of Collins and Eckhoff.","Orange","CA",92867,"E","Public - Credit card at all times","NA","24 hours daily","M V","Q",3600,33.802423,-117.874504,2017-07-06,"2017-07-06 17:22:29 UTC","LG","NA","NA","NA","HD","102"
"103",35699,"CNG","Semi-Service","4285 W 1385 S","NA","Salt Lake City","UT",84104,"E","Public - Credit card at all times","NA","24 hours daily","A D M V GasCard Wright_Exp","Q",0,40.740582,-111.992138,2017-08-02,"2017-08-02 19:02:38 UTC","P","NA","NA","NA","HD","103"
"104",35787,"CNG","Christensen Oil - Sinclair","334 E Riverside Dr","I-15, exit 6 (Bluff Street Exit). After exiting freeway, turn east on E Riverside Rd. Go 0.3 miles. Station is on the right (south) side of road. CNG pump is to the east of the gas/diesel pumps, toward the motel","St. George","UT",84790,"E","Public - Credit card at all times","NA","24 hours daily","A D M V GasCard Wright_Exp","Q",0,37.0815864,-113.5767967,2017-06-02,"2017-06-02 16:58:09 UTC","T","NA","NA","NA","HD","104"
"105",35907,"CNG","Naples Phillips 66","1521 S 1500 E","NA","Naples","UT",84078,"E","Public - Credit card at all times","NA","24 hours daily","M V GasCard Wright_Exp","Q",0,40.433406,-109.499508,2017-06-02,"2017-06-02 16:13:13 UTC","P","NA","NA","NA","HD","105"
"106",35936,"CNG","Questar Gas - Flying J Travel Plaza","1172 W 2100 S","I-15, exit 343","Ogden","UT",84401,"E","Public - Credit card at all times","NA","24 hours daily","M V Wright_Exp Comdata","Q",0,41.229309,-112.00741,2017-06-02,"2017-06-02 16:57:02 UTC","T","NA","NA","NA","HD","106"
"107",36293,"CNG","X3Energy","1607 2nd Ave","US-85 Bypass","Greeley","CO",80631,"E","Public - Credit card at all times","NA","24 hours daily","A M V Proprietor Voyager Wright_Exp","Q",3600,40.4127142,-104.680349,2016-11-02,"2017-12-07 23:12:38 UTC","P","NA","NA","NA","HD","107"
"108",36294,"CNG","X3Energy","7984 US Highway 85","Weld County Rd 18","Fort Lupton","CO",80621,"E","Public - Credit card at all times","NA","24 hours daily","A D M V FuelMan Proprietor Wright_Exp","Q",3600,40.115734,-104.810609,2016-09-02,"2017-12-07 23:12:33 UTC","P","NA","NA","NA","HD","108"
"109",36295,"CNG","X3Energy","103 Hill St","Station is located at US-34","Kersey","CO",80644,"E","Public - Credit card at all times","NA","24 hours daily","A D M V FuelMan Proprietor Wright_Exp","Q",3600,40.392048,-104.564368,2016-09-02,"2017-12-07 23:12:42 UTC","P","NA","NA","NA","HD","109"
"110",36312,"CNG","Questar Gas - Flying J Travel Plaza - Scipio","810 N 800 W","Exit 88 off I-15","Scipio","UT",84656,"E","Public - Credit card at all times","NA","24 hours daily","M V Comdata GasCard Wright_Exp","Q",0,39.255065,-112.116282,2017-11-02,"2017-11-02 17:36:17 UTC","P","NA","NA","NA","HD","110"
"111",36549,"CNG","City of Bossier City","2580 E Texas St","NA","Bossier City","LA",71111,"E","Public - Credit card at all times","NA","24 hours daily","A D M V FuelMan GasCard Voyager Wright_Exp","Q",3600,32.527856,-93.714648,2017-04-06,"2017-04-06 14:17:16 UTC","LG","NA","NA","NA","HD","111"
"112",36586,"CNG","Arkansas Oklahoma Gas Corp","4419 Main St","NA","Arkoma","OK",74901,"E","Public - Credit card at all times","NA","24 hours daily","M V FuelMan Wright_Exp Comdata","Q",3600,35.354716,-94.435278,2017-04-06,"2017-04-06 14:32:15 UTC","T","NA","NA","NA","HD","112"
"113",36590,"CNG","OnCue Express #352","1407 SE 4th St","NA","Lindsay","OK",73052,"E","Public - Credit card at all times","NA","24 hours daily","M V FuelMan Voyager Wright_Exp","Q",3600,34.8238003,-97.5983632,2017-11-02,"2017-11-02 17:32:11 UTC","P","NA","NA","NA","HD","113"
"114",36591,"CNG","OnCue Express #100 - C-Store","5900 W Reno Ave","Reno at MacArthur Ave.","Oklahoma City","OK",73127,"E","Public","NA","24 hours daily; station can accommodate heavy-duty vehicles, however some maneuvering might be necessary","M V Cash FuelMan Voyager Wright_Exp","Q",3600,35.4637587,-97.6197371,2017-11-02,"2017-11-02 17:24:52 UTC","P","NA","NA","NA","HD","114"
"115",36592,"CNG","OnCue Express #101 - C-Store","1 NW 23rd St","NW 23rd St at Santa Fe.","Oklahoma City","OK",73103,"E","Public","NA","24 hours daily","M V Cash FuelMan Voyager Wright_Exp","Q",3600,35.493244,-97.511613,2017-11-02,"2017-11-02 17:26:55 UTC","P","NA","NA","NA","HD","115"
"116",36773,"CNG","Blue Energy Fuels - City of Owasso","101 S Main St","Corner of S Main and E 1st Ave","Owasso","OK",74055,"E","Public - Credit card at all times","NA","24 hours daily","D M V FuelMan Voyager Wright_Exp","Q",3600,36.264896,-95.854698,2017-09-06,"2017-09-06 15:23:47 UTC","P","NA","NA","NA","HD","116"
"117",36775,"CNG","City of Grand Junction","2553 Riverside Pkwy","Riverside Pkwy and Broadway","Grand Junction","CO",81501,"E","Public - Credit card at all times","NA","24 hours daily; contact station to set up account","M V GasCard","Q",3600,39.0749868,-108.583666,2017-11-02,"2017-11-02 17:31:16 UTC","LG","NA","NA","NA","HD","117"
"118",36776,"CNG","City of Bossier City","4520 Barksdale Blvd","NA","Bossier City","LA",71112,"E","Public - Credit card at all times","NA","24 hours daily","A D M V FuelMan GasCard Voyager Wright_Exp","Q",3600,32.4717595,-93.6727339,2017-04-06,"2017-04-06 14:33:51 UTC","LG","NA","NA","NA","HD","118"
"119",36778,"CNG","City of Socorro","3000 Old US Highway 85","NA","Socorro","NM",87801,"E","Public - Credit card at all times","NA","24 hours daily","A D M V","Q",3000,34.0480069,-106.8942339,2017-10-03,"2017-10-03 16:35:14 UTC","LG","NA","NA","NA","HD","119"
"120",37622,"CNG","Blu LNG - Flying J Travel Plaza","850 W 2100 S","LCNG Facility. I-15 and Highway 201","Salt Lake City","UT",84104,"E","Public - Credit card at all times","NA","24 hours daily","A D M V Comdata CFN EFS FuelMan Tchek TCH Voyager Wright_Exp","Q",0,40.725596,-111.915378,2017-08-02,"2017-08-02 19:02:26 UTC","P","NA","NA","NA","HD","120"
"121",38055,"CNG","Washington City Fleet Facility","1305 Washington Dam Rd","NA","Washington City","UT",84780,"E","Public - Credit card at all times","NA","24 hours daily","A D M V","Q",3600,37.110952,-113.486891,2017-06-02,"2017-06-02 16:56:53 UTC","LG","NA","NA","NA","HD","121"
"122",38487,"CNG","Clean Energy - Dillon Transport","4600 Irving Blvd","LCNG station","Dallas","TX",75247,"E","Public - Credit card at all times","NA","24 hours daily; call 866-809-4869 for Clean Energy card","A D M V CleanEnergy Comdata EFS FuelMan Speedway Tchek TCH Voyager Wright_Exp","Q",0,32.808154,-96.89658,2017-08-02,"2017-08-02 18:48:58 UTC","P","NA","NA","NA","HD","122"
"123",38654,"CNG","American Natural Gas","16038 Highway 65 S","Arkansas Route 124","Damascus","AR",72039,"E","Public - Credit card at all times","NA","24 hours daily","A D M V FuelMan Voyager Wright_Exp","Q",3600,35.382203,-92.389994,2016-09-02,"2017-10-25 19:35:36 UTC","P","NA","NA","NA","HD","123"
"124",39185,"CNG","X3Energy","11099 E I-25 Frontage Rd","SH-119","Firestone","CO",80504,"E","Public - Credit card at all times","NA","24 hours daily","A M V Proprietor Voyager Wright_Exp","Q",3600,40.161947,-104.9766858,2016-11-02,"2017-12-07 23:12:37 UTC","P","NA","NA","NA","HD","124"
"125",39194,"CNG","Clean Energy - Hertz - Los Angeles International Airport","9601 Aviation Blvd","Adjacent to Los Angeles International Airport","Los Angeles","CA",90045,"E","Public - Credit card at all times","NA","24 hours daily; call 866-809-4869 for Clean Energy card","D M V CleanEnergy Voyager Wright_Exp","B",3600,33.949874,-118.377742,2017-07-06,"2017-07-06 17:16:53 UTC","P","NA","NA","NA","HD","125"
"126",39196,"CNG","Clean Energy - Riverside County Waste Management","1810 Agua Mansa Rd","LCNG station","Riverside","CA",92509,"E","Public - Credit card at all times","NA","24 hours daily; call 866-809-4869 for Clean Energy card","D M V CleanEnergy FleetOne FuelMan Voyager Wright_Exp","Q",0,34.023179,-117.3806932,2017-07-06,"2017-07-06 17:28:17 UTC","LG","NA","NA","NA","HD","126"
"127",40319,"CNG","Questar Gas - Weber State University","4760 Old Post Rd","Harrison Blvd.","Ogden","UT",84403,"E","Public - Credit card at all times","NA","24 hours daily","M V GasCard Wright_Exp","Q",0,41.176663,-111.947811,2017-06-02,"2017-06-02 16:58:07 UTC","P","NA","NA","NA","HD","127"
"128",40851,"CNG","Clean Energy - City of Torrance","20450 Madrona Ave","NA","Torrance","CA",90503,"E","Public - Credit card at all times","NA","24 hours daily; call 866-809-4869 for Clean Energy card","D M V CleanEnergy FuelMan Voyager Wright_Exp","Q",3600,33.845681,-118.344675,2017-07-06,"2017-07-06 17:16:57 UTC","LG","NA","NA","NA","HD","128"
"129",40876,"CNG","Clean N' Green","1719 S Santa Fe St","NA","Santa Ana","CA",92705,"E","Public - Credit card at all times","NA","24 hours daily; Also accepts Clean N' Green card","D M V FuelMan Voyager Wright_Exp","B",3600,33.724593,-117.853387,2017-07-06,"2017-07-06 17:25:13 UTC","P","NA","NA","NA","HD","129"
"130",40878,"CNG","Northeast Oklahoma Public Facilities Authority - Tahlequah","853 N Woodard Ave","At Woodard and Airport Pkwy. Northeast Oklahoma Public Facilities Authority","Tahlequah","OK",74464,"E","Public - Credit card at all times","NA","24 hours daily","D M V FuelMan Voyager Wright_Exp","Q",3600,35.92304,-95.001973,2017-10-03,"2017-10-03 16:30:04 UTC","SG","NA","NA","NA","HD","130"
"131",41084,"CNG","Questar Gas - Mountainland One Stop","1175 S Main St","NA","Heber City","UT",84032,"E","Public - Credit card at all times","NA","24 hours daily","M V GasCard Wright_Exp","Q",0,40.49288,-111.413214,2017-06-02,"2017-06-02 16:58:06 UTC","P","NA","NA","NA","HD","131"
"132",41171,"CNG","Clean Energy - City of Elk Grove eTran","9050 Elkmont Way","NA","Elk Grove","CA",95624,"E","Public - Credit card at all times","NA","24 hours daily; call 866-809-4869 for Clean Energy card","D M V CleanEnergy FleetOne FuelMan Voyager Wright_Exp","Q",3600,38.38192,-121.364657,2017-07-06,"2017-07-06 17:27:41 UTC","LG","NA","NA","NA","HD","132"
"133",41172,"CNG","Clean Energy - Los Angeles County Sanitation District","2800 Workman Mill Rd","LCNG station","Whittier","CA",90601,"E","Public - Credit card at all times","NA","24 hours daily; call 866-809-4869 for Clean Energy card","D M V CleanEnergy FuelMan Voyager Wright_Exp","Q",0,34.027305,-118.030167,2017-07-06,"2017-07-06 17:27:46 UTC","LG","NA","NA","NA","HD","133"
"134",41449,"CNG","Chevron - Shop A Lott #3","796 Washington Ave","US Highway 84 and US Highway 171","Mansfield","LA",71052,"E","Public","NA","24 hours daily","Cash A D M V FuelMan GasCard Voyager Wright_Exp Comdata EFS FleetOne Tchek TCH","Q",3600,32.0283517,-93.7156072,2017-03-03,"2017-03-03 19:54:03 UTC","P","NA","NA","NA","HD","134"
"135",41450,"CNG","Chevron - Leebo's #9","6016 Old Boyce Hwy","Exit 90, I-49","Alexandria","LA",71303,"E","Public - Credit card after hours","NA","6am-12am daily","Cash A D M V FuelMan GasCard Voyager Wright_Exp Comdata EFS FleetOne Tchek TCH","Q",3600,31.3451124,-92.5192968,2017-03-03,"2017-03-03 18:55:51 UTC","P","NA","NA","NA","HD","135"
"136",42094,"CNG","Conoco Outpost Convenience Store","17699 S Muskogee Ave","NA","Tahlequah","OK",74464,"E","Public - Credit card at all times","NA","24 hours daily; contact station to confirm vehicle accessibility","A D M V","Q",3600,35.8533945,-94.9903165,2017-10-03,"2017-10-03 16:25:42 UTC","P","NA","NA","NA","HD","136"
"137",42473,"CNG","Clean Energy - Chula Vista","1800 Maxwell Rd","NA","Chula Vista","CA",91911,"E","Public - Credit card at all times","NA","24 hours daily; call 866-809-4869 for Clean Energy card","D M V CleanEnergy Voyager Wright_Exp","Q",3600,32.5968125,-117.0201572,2017-03-03,"2017-03-03 18:33:04 UTC","LG","NA","NA","NA","HD","137"
"138",42584,"CNG","TruStar Energy - Lafayette","515 E Verot School Rd","NA","Lafayette","LA",70508,"E","Public - Credit card at all times","NA","24 hours daily","A D M V FuelMan Voyager Wright_Exp","Q",3600,30.1803064,-91.9970849,2017-03-03,"2017-03-03 18:44:58 UTC","P","NA","NA","NA","HD","138"
"139",42585,"CNG","Clean Energy - Louis Armstrong New Orleans International Airport","1017 Airline Dr","NA","Kenner","LA",70062,"E","Public - Credit card at all times","NA","24 hours daily; call 866-809-4869 for Clean Energy card; station can accommodate heavy-duty vehicles up to tractor-trailers","D M V CleanEnergy FuelMan Voyager Wright_Exp","Q",0,29.983445,-90.262962,2017-07-06,"2017-07-06 17:17:34 UTC","P","NA","NA","NA","HD","139"
"140",42586,"CNG","Shreveport Trash Trucks","1731 Kings Hwy","At Linwood Ave","Shreveport","LA",71103,"E","Public - Credit card at all times","NA","24 hours daily; unattended station - phone is attended 8am-5pm M-F","A D M V FuelMan","Q",3600,32.481759,-93.76607,2016-03-07,"2017-12-01 16:53:29 UTC","P","NA","NA","NA","HD","140"
"141",42587,"CNG","Time-it-Lube","6828 Pines Rd","NA","Shreveport","LA",71129,"E","Public - Credit card at all times","NA","24 hours daily","A D M V FuelMan Voyager Wright_Exp","Q",3600,32.4447603,-93.8628888,2017-07-06,"2017-07-06 17:20:10 UTC","P","NA","NA","NA","HD","141"
"142",42591,"CNG","OnCue Express #107","5500 SE 29th St","SW corner of SE 29th and Sooner Rd.","Del City","OK",73115,"E","Public - Credit card at all times","NA","24 hours daily","M V FuelMan Voyager Wright_Exp","Q",3600,35.4346492,-97.424734,2017-11-02,"2017-11-02 17:28:40 UTC","P","NA","NA","NA","HD","142"
"143",42594,"CNG","OnCue Express #314 - C-Store","1402 S Perkins Rd","8 blocks S of Hwy 51 & Perkins Rd intersection.","Stillwater","OK",74074,"E","Public","NA","24 hours daily","M V Cash FuelMan Voyager Wright_Exp","Q",3600,36.106655,-97.051359,2017-11-02,"2017-11-02 17:29:11 UTC","P","NA","NA","NA","HD","143"
"144",42600,"CNG","Questar Gas - Kaysville","80 N 600 W","Exit 328 off I-15","Kaysville","UT",84037,"E","Public - Credit card at all times","NA","24 hours daily","M V GasCard Wright_Exp","Q",0,41.044716,-111.940683,2017-06-02,"2017-06-02 16:57:03 UTC","T","NA","NA","NA","HD","144"
"145",42607,"CNG","Canyons School District","200 E 9300 S","NA","Sandy","UT",84070,"E","Public - Credit card at all times","NA","8am-5pm M-F","M V","B",0,40.583055,-111.883628,2017-12-05,"2017-12-05 16:39:56 UTC","SG","NA","NA","NA","HD","145"
"146",43353,"CNG","ASAP General Store 101","1501 N Airport Rd","I-40, Exit 84.","Weatherford","OK",73096,"E","Public","NA","24 hours daily","A D M V Cash Checks Comdata EFS FleetOne FuelMan GasCard Tchek TCH Voyager Wright_Exp","Q",3600,35.539227,-98.658696,2017-07-06,"2017-07-06 17:29:05 UTC","P","NA","NA","NA","HD","146"
"147",43651,"CNG","City of Norman","2351 Goddard Ave","Just off of Rock Creek Rd","Norman","OK",73069,"E","Public - Credit card at all times","NA","24 hours daily","A D M V FleetOne FuelMan GasCard Voyager Wright_Exp","B",0,35.246922,-97.461247,2017-10-03,"2017-10-03 16:25:51 UTC","LG","NA","NA","NA","HD","147"
"148",43670,"CNG","Clean N' Green","2749 N Loop 336 E","NA","Conroe","TX",77301,"E","Public - Credit card at all times","NA","24 hours daily; Also accepts Clean N' Green card","D M V FuelMan Voyager Wright_Exp","Q",3600,30.3318846,-95.4085162,2017-07-06,"2017-07-06 17:25:56 UTC","P","NA","NA","NA","HD","148"
"149",43686,"CNG","Clean N' Green","8652 S 4000 W","NA","West Jordan","UT",84088,"E","Public - Credit card at all times","NA","24 hours daily; Also accepts Clean N' Green card","D M V FuelMan Voyager Wright_Exp","Q",3600,40.5941438,-111.9883044,2017-07-06,"2017-07-06 17:21:56 UTC","P","NA","NA","NA","HD","149"
"150",43723,"CNG","Clean N' Green","4040 S 80th St","NA","Mesa","AZ",85212,"E","Public - Credit card at all times","NA","24 hours daily; semis with a 63 foot long trailer would be a very tight fit; Also accepts Clean N' Green card","D M V FuelMan Voyager Wright_Exp","Q",3600,33.341244,-111.66178,2017-07-06,"2017-07-06 17:28:32 UTC","P","NA","NA","NA","HD","150"
"151",44752,"CNG","Reno Partners - Conoco","3701 W Reno Ave","Reno Ave and N Portland Ave","Oklahoma City","OK",73107,"E","Public - Credit card at all times","NA","24 hours daily","A D M V GasCard Voyager Wright_Exp","Q",3600,35.46439,-97.584064,2017-09-06,"2017-09-06 15:15:00 UTC","P","NA","NA","NA","HD","151"
"152",46011,"CNG","Satterfield Oak Street Gulf","1305 E Oak St","Off of I-40","Conway","AR",72032,"E","Public","NA","24 hours daily","A D M V Cash FuelMan Voyager Wright_Exp","Q",3600,35.091278,-92.41043,2017-07-06,"2017-07-06 17:21:31 UTC","P","NA","NA","NA","HD","152"
"153",46139,"CNG","Circleville CNG","315 W 470 S","Located at Joe Dalton Autobody","Circleville","UT",84723,"E","Public - Credit card at all times","NA","24 hours daily","A M V","Q",3000,38.164391,-112.278183,2017-12-05,"2017-12-05 16:41:00 UTC","P","NA","NA","NA","HD","153"
"154",46195,"CNG","Love's Travel Stop #263","24169 Highway 49","NA","Lawton","OK",73507,"E","Public","NA","24 hours daily","A D M V Cash Checks EFS FleetOne FuelMan Tchek TCH Voyager Wright_Exp","Q",3600,34.713022,-98.401837,2017-01-11,"2017-12-20 03:20:34 UTC","P","NA","NA","NA","HD","154"
"155",46345,"CNG","Trillium CNG - Golden Eagle","1000 N Jefferson Ave","NA","Casa Grande","AZ",85122,"E","Public - Credit card at all times","NA","24 hours daily","A D M V Comdata EFS TCH Trillium Voyager Wright_Exp","Q",3600,32.882266,-111.778103,2016-10-04,"2017-12-20 14:04:48 UTC","P","NA","NA","NA","HD","155"
"156",46346,"CNG","Trillium CNG - Golden Eagle","705 E Ajo Way","NA","Tucson","AZ",85713,"E","Public - Credit card at all times","NA","24 hours daily","A D M V Comdata EFS Tchek TCH Trillium Voyager Wright_Exp","Q",3600,32.179075,-110.960085,2016-10-04,"2017-12-07 21:50:53 UTC","P","NA","NA","NA","HD","156"
"157",47291,"CNG","Love's Travel Stop #203","800 S Morgan Rd","Located at intersection of I-40 and Morgan Rd","Oklahoma City","OK",73128,"E","Public","NA","24 hours daily","A D M V Cash EFS FleetOne FuelMan Tchek TCH Voyager Wright_Exp","Q",3600,35.4576941,-97.6886842,2017-01-11,"2017-12-20 03:16:10 UTC","P","NA","NA","NA","HD","157"
"158",47293,"CNG","Chickasaw Travel Stop - Thackerville","22983 Brown Springs Rd","I-35 & Exit 1","Thackerville","OK",73459,"E","Public - Credit card at all times","NA","24 hours daily","A D M V Comdata EFS FleetOne Voyager Wright_Exp","Q",3600,33.736202,-97.143504,2017-09-06,"2017-09-06 15:26:08 UTC","P","NA","NA","NA","HD","158"
"159",47301,"CNG","Love's Travel Stop #468","9600 Longstreet Rd W","I-45, Exit 95","Willis","TX",77378,"E","Public","NA","24 hours daily","A D M V Cash Checks EFS FleetOne FuelMan Tchek TCH Voyager Wright_Exp","Q",3600,30.4375178,-95.5000799,2017-01-11,"2017-12-20 13:27:01 UTC","P","NA","NA","NA","HD","159"
"160",47302,"CNG","Salt Lake Community College","4600 S Redwood Rd","NA","Salt Lake City","UT",84123,"E","Public - Credit card at all times","NA","7am-4pm daily","M V","Q",3600,40.670029,-111.938861,2017-12-05,"2017-12-05 16:36:55 UTC","SG","NA","NA","NA","HD","160"
"161",47992,"CNG","City of Tulsa - West Maintenance Yard","420 W 23rd St","South side of 23rd St on West side of bridge. Station not visible from road. Must turn into City Maintenance yard.","Tulsa","OK",74107,"E","Public - Credit card at all times","NA","6am-6pm M-F","M V","Q",3600,36.1303716,-95.9950381,2017-09-06,"2017-09-06 15:14:25 UTC","LG","NA","NA","NA","HD","161"
"162",47994,"CNG","Hutch's C-Store #113","3710 Oklahoma Ave","NA","Woodward","OK",73801,"E","Public - Credit card at all times","NA","24 hours daily","A D M V Voyager Wright_Exp","Q",3600,36.4341373,-99.4275842,2017-11-02,"2017-11-02 17:27:56 UTC","P","NA","NA","NA","HD","162"
"163",48496,"CNG","Hutch's C-Store #119","2001 E 7th St","Just off exit 40 of I-40","Elk City","OK",73644,"E","Public - Credit card at all times","NA","24 hours daily","A D M V Voyager Wright_Exp","Q",3600,35.4073876,-99.374724,2017-11-02,"2017-11-02 17:29:17 UTC","P","NA","NA","NA","HD","163"
"164",48497,"CNG","L&S Fuels LLC","120 Cedar Springs Rd","NA","Fairview","OK",73737,"E","Public - Credit card at all times","NA","24 hours daily","D M V FuelMan Voyager Wright_Exp","Q",3600,36.2607627,-98.4909942,2017-10-03,"2017-10-03 16:35:10 UTC","P","NA","NA","NA","HD","164"
"165",48499,"CNG","7-Eleven #77","1920 S Eastern Ave","S Eastern Ave & SE 19th St","Moore","OK",73160,"E","Public - Credit card at all times","NA","24 hours daily","M V","Q",3600,35.3203401,-97.476286,2017-10-03,"2017-10-03 16:22:22 UTC","P","NA","NA","NA","HD","165"
"166",48516,"CNG","Movo Hydroco","12125 Day St","Gas station is located in an outlet mall.","Moreno Valley","CA",92557,"E","Public - Credit card at all times","NA","24 hours daily","A D M V Voyager Wright_Exp","Q",3600,33.943692,-117.279005,2016-05-09,"2017-12-20 16:07:20 UTC","P","NA","NA","NA","HD","166"
"167",48896,"CNG","EDCO Disposal - Buena Park","6762 Stanton Ave","Easy access from I-5 and/or SR 91","Buena Park","CA",90621,"E","Public - Credit card at all times","NA","24 hours daily","A D M V","Q",3600,33.86243,-117.993767,2017-07-06,"2017-12-15 13:31:57 UTC","P","NA","NA","NA","HD","167"
"168",48901,"CNG","Clean Energy - San Diego Airport - India Shell","3519 India St","NA","San Diego","CA",92103,"E","Public - Credit card at all times","NA","24 hours daily; call 866-809-4869 for Clean Energy card","D M V CleanEnergy FuelMan Voyager Wright_Exp","Q",0,32.7395007,-117.1776595,2017-03-03,"2017-03-03 18:33:07 UTC","P","NA","NA","NA","HD","168"
"169",49286,"CNG","Freedom CNG","6000 Debbielou Gardens Dr","NA","Houston","TX",77034,"E","Public - Credit card at all times","NA","24 hours daily; also fills CNG tube trailers","D M V FuelMan Voyager Wright_Exp","Q",3600,29.6189478,-95.1903621,2017-08-02,"2017-08-02 19:07:55 UTC","P","NA","NA","NA","HD","169"
"170",49541,"CNG","Lemoore Area School District","857 Iona Ave","NA","Lemoore","CA",93245,"E","Public - Credit card at all times","NA","24 hours daily","M V","Q",3600,36.2836786,-119.7933699,2017-05-04,"2017-05-04 13:21:44 UTC","P","NA","NA","NA","HD","170"
"171",49543,"CNG","Rocky Mountain C-Stores - Parachute","201 Columbine Ct","Located near the Shell station on the north side of I-70 at the Parachute CO exit","Parachute","CO",81635,"E","Public - Credit card at all times","NA","24 hours daily","A D M V Voyager Wright_Exp","Q",3600,39.4535176,-108.0463122,2017-11-02,"2017-11-02 17:36:23 UTC","P","NA","NA","NA","HD","171"
"172",49550,"CNG","CNG America - Lehi","160 N 850 E","Lehi Main St. Exit behind Alpine Credit Union.","Lehi","UT",84043,"E","Public - Credit card at all times","NA","24 hours daily; station can accommodate heavy-duty vehicles, except 18-wheelers and semi trucks.","A D M V FuelMan Wright_Exp","Q",0,40.389515,-111.836154,2017-06-02,"2017-06-02 16:59:01 UTC","P","NA","NA","NA","HD","172"
"173",50052,"CNG","CNG 4 America - Bryan","2890 N Harvey Mitchell Pkwy","Located at Big Gas Truck Stop.","Bryan","TX",77807,"E","Public - Credit card at all times","NA","24 hours daily","A D M V FuelMan Voyager Wright_Exp EFS","Q",3600,30.7255229,-96.4254319,2017-03-03,"2017-03-03 18:45:28 UTC","P","NA","NA","NA","HD","173"
"174",50053,"CNG","CNG 4 America - Katy","24985 Katy Fwy","Located at Texaco Truck Stop - Sunmart #131. Dispensers are on extended diesel islands and the new CNG auto island.","Katy","TX",77494,"E","Public - Credit card at all times","NA","24 hours daily; Also accepts RFID cards","A D M V FuelMan Voyager Wright_Exp","Q",3600,29.7846686,-95.8011803,2017-03-03,"2017-03-03 18:48:06 UTC","P","NA","NA","NA","HD","174"
"175",50055,"CNG","CNG 4 America - Rosenberg","26111 Southwest Fwy","Located at Valero Truck Stop - US 59 Fuelmart.","Rosenberg","TX",77471,"E","Public - Credit card at all times","NA","24 hours daily; Also accepts RFID cards","A D M V FuelMan Voyager Wright_Exp EFS","Q",3600,29.5334239,-95.7757257,2017-03-03,"2017-03-03 18:48:09 UTC","P","NA","NA","NA","HD","175"
"176",50240,"CNG","Clean N' Green","13793 Redwood Ave","NA","Chino","CA",91710,"E","Public - Credit card at all times","NA","24 hours daily; Also accepts Clean N' Green card","D M V FuelMan Voyager Wright_Exp","B",3600,34.0022676,-117.6869153,2017-07-06,"2017-07-06 17:28:32 UTC","P","NA","NA","NA","HD","176"
"177",50268,"CNG","OnCue Express #112 - C-Store","13600 N Western Ave","SE Corner of Memorial & N Western.","Oklahoma City","OK",73114,"E","Public","NA","24 hours daily","M V Cash FuelMan Voyager Wright_Exp","Q",3600,35.608007,-97.53153,2017-12-05,"2017-12-05 16:30:04 UTC","P","NA","NA","NA","HD","177"
"178",50272,"CNG","Zeit Energy - Atmos Energy","1540 Tech Center Pkwy","NA","Arlington","TX",76014,"E","Public - Credit card at all times","NA","24 hours daily","A D M V FuelMan Voyager Wright_Exp","Q",3600,32.68101,-97.087873,2017-08-02,"2017-08-02 19:06:06 UTC","P","NA","NA","NA","HD","178"
"179",50645,"CNG","City of Fullerton - EcoFuelCNG","1600 W Commonwealth Ave","NA","Fullerton","CA",92833,"E","Public - Credit card at all times","NA","24 hours daily","D M V Voyager Wright_Exp","Q",3600,33.869787,-117.952097,2017-06-02,"2017-06-02 16:23:10 UTC","LG","NA","NA","NA","HD","179"
"180",50646,"CNG","Domino Express #1","1709 S Highway 183","NA","Clinton","OK",73601,"E","Public - Credit card at all times","NA","24 hours daily","A D M V Comdata EFS FuelMan Voyager Wright_Exp","Q",3600,35.491261,-98.967672,2017-10-03,"2017-10-03 16:24:12 UTC","P","NA","NA","NA","HD","180"
"181",50647,"CNG","America's Fuel 4 U","7301 N Highway 81","NA","Duncan","OK",73533,"E","Public - Credit card at all times","NA","24 hours daily","A D M V FuelMan GasCard Voyager Wright_Exp","Q",3600,34.5801,-97.967003,2017-11-02,"2017-11-02 17:35:43 UTC","P","NA","NA","NA","HD","181"
"182",50648,"CNG","Northeast Oklahoma Public Facilities Authority - Stilwell","81075 Highway 59","Located on east side of Highway 59, across from Maryetta School (.25 mi north of the intersection of Highway 51 and Highway 59)","Stilwell","OK",74960,"E","Public - Credit card at all times","NA","24 hours daily","D M V FuelMan Voyager Wright_Exp","Q",3600,35.805061,-94.6315197,2017-10-03,"2017-10-03 16:33:56 UTC","SG","NA","NA","NA","HD","182"
"183",51466,"CNG","American Natural Gas","2125 Sanders Rd","I-40 and Route 64","Conway","AR",72032,"E","Public - Credit card at all times","NA","24 hours daily","A D M V Voyager Wright_Exp","Q",3600,35.106478,-92.43572,2017-08-02,"2017-08-02 19:09:33 UTC","P","NA","NA","NA","HD","183"
"184",51598,"CNG","Clean Energy - Orange County Airport Hertz","4023 Birch St","NA","Newport Beach","CA",92660,"P","PLANNED - not yet accessible (Public - Credit card at all times)","2018-06-15","24 hours daily; call 866-809-4869 for Clean Energy card","D M V CleanEnergy Voyager Wright_Exp","Q",0,33.6652147,-117.8699896,2017-11-02,"2017-11-02 17:37:43 UTC","P","NA","NA","NA","HD","184"
"185",51599,"CNG","Clean Energy - Palm Desert Burrtec Waste","41575 Eclectic St","I-10, Cook St exit, go south 3 miles, right on Hovley, left on Eclectic, right on Lemon, and station is at Corporate Way","Palm Desert","CA",92260,"E","Public - Credit card at all times","NA","24 hours daily; call 866-809-4869 for Clean Energy card","D M V CleanEnergy FuelMan Voyager Wright_Exp","Q",0,33.744099,-116.358218,2015-03-04,"2017-12-18 02:53:40 UTC","P","NA","NA","NA","HD","185"
"186",51600,"CNG","ReFuel Sacramento","8550 Fruitridge Rd","NA","Sacramento","CA",95826,"E","Public - Card key after hours","NA","24 hours daily with gate code; gate is open from 6am-5pm M-F; please call the General Manager at 916-288-2804 for more information","CleanEnergy CFN FleetOne FuelMan Voyager Wright_Exp","Q",3600,38.52282,-121.387137,2017-07-06,"2017-07-06 17:25:13 UTC","P","NA","NA","NA","HD","186"
"187",52207,"CNG","CNG Services LLC","2950 N Ohio St","Take Hydraulic exit from I-135 N or K-96 W. Left onto 29th St around to Ohio St","Wichita","KS",67219,"E","Public - Credit card at all times","NA","24 hours daily","A D M V Voyager Wright_Exp","Q",3600,37.737098,-97.324173,2017-10-03,"2017-10-03 16:26:16 UTC","P","NA","NA","NA","HD","187"
"188",52214,"CNG","ampCNG","1606 Exchange Pkwy","NA","Waco","TX",76712,"E","Public - Credit card at all times","NA","24 hours daily; Also accepts AMP Americas Fueling Card","A D M V FuelMan Voyager Wright_Exp Comdata EFS Trillium","Q",3600,31.4998954,-97.1735457,2017-03-03,"2017-03-03 19:41:00 UTC","P","NA","NA","NA","HD","188"
"189",52496,"CNG","Love's Travel Stop #294","8800 S Polk St","I-20, Exit 466","Dallas","TX",75232,"E","Public","NA","24 hours daily","A D M V Cash Checks EFS FleetOne FuelMan Tchek TCH Voyager","Q",3600,32.6458,-96.840129,2017-01-11,"2017-12-20 03:26:37 UTC","P","NA","NA","NA","HD","189"
"190",52497,"CNG","Love's Travel Stop #281","10801 South Fwy","I-35 W, Exit 40","Fort Worth","TX",76140,"E","Public","NA","24 hours daily","A D M V Cash Checks EFS FleetOne FuelMan Tchek TCH Voyager Wright_Exp","Q",3600,32.59915,-97.318199,2017-01-11,"2017-12-20 03:24:22 UTC","P","NA","NA","NA","HD","190"
"191",52498,"CNG","Love's Travel Stop #315","3940 N McCarty St","610 Loop, Exit 24A","Houston","TX",77013,"E","Public","NA","24 hours daily","A D M V Cash Checks EFS FleetOne FuelMan Tchek TCH Voyager Wright_Exp","Q",3600,29.798748,-95.27002,2017-01-11,"2017-12-20 03:27:29 UTC","P","NA","NA","NA","HD","191"
"192",52499,"CNG","Love's Travel Stop #234","612 Pederson Rd","I-10, Exit 737","Katy","TX",77493,"E","Public","NA","24 hours daily","A D M V Cash Checks EFS FleetOne FuelMan Tchek TCH Voyager Wright_Exp","Q",3600,29.779829,-95.881153,2017-01-11,"2017-12-20 03:18:08 UTC","P","NA","NA","NA","HD","192"
"193",52500,"CNG","GAIN Clean Fuel - Longview","131 Pittman Rd","Behind the Denny's on Eastman Rd","Longview","TX",75602,"E","Public - Credit card at all times","NA","24 hours daily","A M V","Q",3600,32.45491,-94.696363,2017-08-02,"2017-08-02 19:09:11 UTC","P","NA","NA","NA","HD","193"
"194",52501,"CNG","Love's Travel Stop #486","7401 S Choctaw Rd","I-40, take exit 166","Choctaw","OK",73020,"E","Public","NA","24 hours daily","A D M V Cash Checks EFS FleetOne FuelMan Tchek TCH Voyager Wright_Exp","Q",3600,35.39505,-97.264887,2017-01-11,"2017-12-20 13:34:54 UTC","P","NA","NA","NA","HD","194"
"195",52502,"CNG","Love's Travel Stop #283","1990 E I-30","I-30, Exit 70","Rockwall","TX",75087,"E","Public","NA","24 hours daily","A D M V Cash EFS FleetOne FuelMan Tchek TCH Voyager Wright_Exp","Q",3600,32.919169,-96.419101,2017-01-11,"2017-12-20 03:25:40 UTC","P","NA","NA","NA","HD","195"
"196",52503,"CNG","Love's Travel Stop #242","11361 I-35 Access Rd","I-35, Exit 144","Von Ormy","TX",78073,"E","Public","NA","24 hours daily","Cash A D M V FuelMan Voyager Wright_Exp EFS FleetOne Tchek TCH","Q",3600,28.741776,-99.141854,2017-06-02,"2017-06-02 16:58:02 UTC","P","NA","NA","NA","HD","196"
"197",52681,"CNG","ampCNG","9234 E Highland Dr","NA","Jonesboro","AR",72401,"E","Public - Credit card at all times","NA","24 hours daily; Also accepts AMP Americas Fueling Card","A D M V EFS FuelMan Trillium Voyager Wright_Exp","Q",3600,35.821863,-90.570635,2017-07-06,"2017-07-06 17:26:38 UTC","P","NA","NA","NA","HD","197"
"198",52682,"CNG","Ryder Systems Inc","10641 Almond Ave","At Slover Ave","Fontana","CA",92337,"E","Public - Credit card at all times","NA","24 hours daily","A D M V","Q",3600,34.0605909,-117.4923945,2017-02-01,"2017-02-01 20:09:12 UTC","P","NA","NA","NA","HD","198"
"199",52694,"CNG","CNG America - Orem","1280 W University Pkwy","University Parkway exit on the west side.","Orem","UT",84058,"E","Public - Credit card at all times","NA","24 hours daily","A D M V FuelMan Wright_Exp","Q",0,40.275171,-111.725862,2017-06-02,"2017-06-02 16:56:53 UTC","P","NA","NA","NA","HD","199"
"200",52695,"CNG","CNG America - Bells Silver Creek - Sinclair","7102 Silver Creek Rd","1-15 Hwy 40 Junction.","Park City","UT",84098,"E","Public - Credit card at all times","NA","24 hours daily","A D M V GasCard Wright_Exp","Q",0,40.733966,-111.499338,2017-06-02,"2017-06-02 16:58:07 UTC","P","NA","NA","NA","HD","200"
"201",52992,"CNG","Clean N' Green","2137 W Williams Dr","NA","Phoenix","AZ",85027,"E","Public - Credit card at all times","NA","24 hours daily; Also accepts Clean N' Green card","D M V FuelMan Voyager Wright_Exp","Q",3600,33.691064,-112.105881,2017-07-06,"2017-07-06 17:21:22 UTC","P","NA","NA","NA","HD","201"
"202",53312,"CNG","City of Blythe","201 W 14th Ave","At the intersection of 14th and Main St.","Blythe","CA",92225,"E","Public - Credit card at all times","NA","24 hours daily","M V","Q",3600,33.603063,-114.598023,2017-05-04,"2017-05-04 13:21:56 UTC","LG","NA","NA","NA","HD","202"
"203",53316,"CNG","Gaubert Food Marts Inc","551 S Van Ave","NA","Houma","LA",70363,"E","Public","NA","24 hours daily","Cash Checks A D M V FuelMan Voyager Wright_Exp","Q",3600,29.577535,-90.7104932,2017-03-03,"2017-03-03 18:47:15 UTC","P","NA","NA","NA","HD","203"
"204",53625,"CNG","Trillium CNG","1120 E Paige Ave","NA","Tulare","CA",93274,"E","Public - Credit card at all times","NA","24 hours daily","A D M V Voyager Wright_Exp","Q",3600,36.1830881,-119.3304254,2017-02-01,"2017-02-01 20:11:50 UTC","P","NA","NA","NA","HD","204"
"205",53629,"CNG","Trillium CNG - EZ Mart","338 State Highway 594","Near Russel Sage Rd","Monroe","LA",71201,"E","Public - Credit card at all times","NA","24 hours daily","A D M V EFS Tchek TCH Trillium Voyager Wright_Exp","Q",3600,32.493332,-91.990445,2017-06-02,"2017-12-20 14:30:39 UTC","P","NA","NA","NA","HD","205"
"206",53632,"CNG","City of Deming","116 N 8th St","8th St and Pine St.","Deming","NM",88030,"E","Public - Credit card at all times","NA","24 hours daily; customers may call Bryan Reedy (575-546-8848 x129) with questions","A D M V Voyager Wright_Exp","Q",3600,32.267665,-107.768747,2017-10-03,"2017-10-03 16:29:33 UTC","LG","NA","NA","NA","HD","206"
"207",53637,"CNG","ampCNG Trillium CNG","2225 S Pullman Rd","I-40 and Pullman Rd.","Amarillo","TX",79118,"E","Public - Credit card at all times","NA","24 hours daily; Also accepts AMP Americas Fueling Card","A D M V FuelMan Voyager Wright_Exp Comdata EFS Trillium","Q",3600,35.1919101,-101.7070164,2017-05-04,"2017-05-04 13:21:16 UTC","P","NA","NA","NA","HD","207"
"208",53641,"CNG","ampCNG","4300 Patton Rd","NA","Rosenberg","TX",77471,"E","Public - Credit card at all times","NA","24 hours daily; Also accepts AMP Americas Fueling Card","A D M V FuelMan Voyager Wright_Exp Comdata EFS Trillium","Q",3600,29.561748,-95.887913,2017-03-03,"2017-03-03 19:48:46 UTC","P","NA","NA","NA","HD","208"
"209",53642,"CNG","ampCNG","9422 I-20 S Frontage Rd","Station is located on I-20, west of Dallas and Fort Worth and south of Lubbock","Sweetwater","TX",79556,"E","Public - Credit card at all times","NA","24 hours daily; Also accepts AMP Americas Fueling Card","A D M V FuelMan Voyager Wright_Exp Comdata EFS Trillium","Q",3600,32.4502619,-100.4435056,2017-03-03,"2017-03-03 19:53:31 UTC","P","NA","NA","NA","HD","209"
"210",53750,"CNG","X3Energy","1200 S Sherman St","NA","Longmont","CO",80501,"E","Public - Credit card at all times","NA","24 hours daily; station can accommodate most heavy-duty vehicles, except for tractor trailers.","A D M V Proprietor Voyager Wright_Exp","Q",3600,40.145567,-105.115579,2016-09-02,"2017-12-07 23:12:34 UTC","P","NA","NA","NA","HD","210"
"211",53754,"CNG","Freedom Fuels","501 W 70th St","NA","Shreveport","LA",71106,"E","Public - Credit card at all times","NA","24 hours daily; Also accepts GE card.","D M V Voyager Wright_Exp","Q",3600,32.441468,-93.765557,2017-03-03,"2017-03-03 18:34:15 UTC","P","NA","NA","NA","HD","211"
"212",53774,"CNG","Trillium CNG - EVO Central Freight","5200 E Loop 820 S","NA","Fort Worth","TX",76119,"E","Public - Credit card at all times","NA","24 hours daily","A D M V Voyager Wright_Exp Comdata EFS Trillium","Q",3600,32.683396,-97.241015,2017-05-04,"2017-05-04 13:17:11 UTC","P","NA","NA","NA","HD","212"
"213",53775,"CNG","Freedom CNG","7155 High Life Dr","NA","Houston","TX",77066,"E","Public - Credit card at all times","NA","24 hours daily; also fills CNG tube trailers","D M V FuelMan Voyager Wright_Exp","Q",3600,29.9435799,-95.5237186,2017-08-02,"2017-08-02 19:07:53 UTC","P","NA","NA","NA","HD","213"
"214",60085,"CNG","Love's Travel Stop #200","6930 I-40 E","I-40, Exit 74","Amarillo","TX",79118,"E","Public","NA","24 hours daily","A D M V Cash Checks EFS FleetOne FuelMan Tchek TCH Voyager","Q",3600,35.191671,-101.761166,2017-01-11,"2017-12-20 03:15:24 UTC","P","NA","NA","NA","HD","214"
"215",60087,"CNG","Shop A Lott #20","201 Highway 3175","NA","Natchitoches","LA",71457,"E","Public","NA","4am-10pm daily","Cash A D M V FuelMan GasCard Voyager Wright_Exp Comdata EFS FleetOne Tchek TCH","Q",3600,31.7544957,-93.0822303,2017-03-03,"2017-03-03 18:48:12 UTC","P","NA","NA","NA","HD","215"
"216",60117,"CNG","American Natural Gas","5625 SW Wenger St","NA","Topeka","KS",66609,"E","Public - Credit card at all times","NA","24 hours daily; Also accepts Shell card and Irving card","M V FuelMan GasCard Voyager Wright_Exp Comdata EFS Tchek TCH","Q",3600,38.9687286,-95.7012175,2017-01-11,"2017-10-25 19:35:37 UTC","P","NA","NA","NA","HD","216"
"217",60119,"CNG","American Natural Gas","5800 Mesa Dr","NA","Houston","TX",77028,"E","Public - Credit card at all times","NA","24 hours daily; Also accepts Shell card and Irving card","A M V FuelMan GasCard Voyager Wright_Exp Comdata EFS Tchek TCH","Q",3600,29.8169838,-95.2563928,2017-01-11,"2017-10-25 19:36:07 UTC","P","NA","NA","NA","HD","217"
"218",60210,"CNG","Questar Gas - JR's Truck Stop","2635 N Freeway Dr","Just off exit 62, along Interstate-15.","Cedar City","UT",84721,"E","Public - Credit card at all times","NA","24 hours daily","M V GasCard Wright_Exp Comdata","Q",0,37.7249492,-113.0573211,2017-06-02,"2017-06-02 16:16:40 UTC","P","NA","NA","NA","HD","218"
"219",60253,"CNG","EVO Trillium","8301 W Sherman St","Station is on the southwest corner of 83rd and Sherman.","Tolleson","AZ",85353,"E","Public - Credit card at all times","NA","24 hours daily; also accepts Comdata","A D M V Voyager Wright_Exp EFS Tchek TCH Trillium","Q",3600,33.440975,-112.239212,2017-05-04,"2017-05-04 13:21:11 UTC","P","NA","NA","NA","HD","219"
"220",60254,"CNG","EVO Trillium","11888 Mission Blvd","NA","Jurupa Valley","CA",91752,"E","Public - Credit card at all times","NA","24 hours daily","A D M V","Q",3600,34.025963,-117.544376,2016-10-04,"2017-10-16 21:07:08 UTC","P","NA","NA","NA","HD","220"
"221",60257,"CNG","ampCNG","19765 US Highway 287 E","Co-Located with ALON Truck Stop","Harrold","TX",76364,"E","Public - Credit card at all times","NA","24 hours daily; Also accepts AMP Americas Fueling Card","A D M V FuelMan Voyager Wright_Exp EFS Trillium","Q",3600,34.0713269,-99.0094287,2017-03-03,"2017-03-03 19:40:36 UTC","P","NA","NA","NA","HD","221"
"222",60260,"CNG","Trillium CNG","1275 Meacham Rd","NA","Fort Worth","TX",76106,"E","Public - Credit card at all times","NA","24 hours daily","A D M V FuelMan Voyager Wright_Exp EFS Tchek TCH Trillium","Q",3600,32.8243446,-97.3366879,2017-04-06,"2017-04-06 14:28:22 UTC","P","NA","NA","NA","HD","222"
"223",60261,"CNG","ampCNG","3050 Fredericksburg Rd","Fredericksburg and Scenic Hills Rd","Kerrville","TX",78028,"E","Public - Credit card at all times","NA","24 hours daily","A D M V FuelMan Voyager Wright_Exp Trillium","Q",3600,30.0760617,-99.1055952,2017-03-03,"2017-03-03 19:53:44 UTC","P","NA","NA","NA","HD","223"
"224",60266,"CNG","Clean Energy - Fontana Truck Stop","14230 Valley Blvd","LCNG station","Fontana","CA",92335,"E","Public - Credit card at all times","NA","24 hours daily; call 866-809-4869 for Clean Energy card; Also accepts PFGift Card","A D M V CleanEnergy EFS FuelMan Speedway Tchek TCH Voyager Wright_Exp","Q",3600,34.070224,-117.494603,2017-07-06,"2017-07-06 17:16:46 UTC","P","NA","NA","NA","HD","224"
"225",60646,"CNG","City of Little Rock","501 Ferry St","NA","Little Rock","AR",72202,"E","Public - Credit card at all times","NA","24 hours daily; Also accepts Diners Club","A D M V Comdata EFS FleetOne FuelMan Voyager Wright_Exp","Q",3600,34.742633,-92.263747,2017-08-02,"2017-08-02 18:46:04 UTC","LG","NA","NA","NA","HD","225"
"226",60681,"CNG","American Natural Gas","1001 S 65th Ave","Near Interstate 10","Phoenix","AZ",85043,"E","Public - Credit card at all times","NA","24 hours daily; Also accepts Shell card and Irving card","A D M V FuelMan GasCard Voyager Wright_Exp Comdata EFS Tchek TCH","Q",3600,33.4390201,-112.1982282,2017-01-11,"2017-10-25 19:35:35 UTC","P","NA","NA","NA","HD","226"
"227",60818,"CNG","Arkansas Oklahoma Gas Corp","4315 Savannah St","NA","Fort Smith","AR",72903,"E","Public - Credit card at all times","NA","24 hours daily","M V FuelMan Wright_Exp","Q",3600,35.3351962,-94.3847269,2017-04-06,"2017-04-06 14:20:07 UTC","T","NA","NA","NA","HD","227"
"228",60836,"CNG","Lafayette Consolidated Government","1515 E University Ave","NA","Lafayette","LA",70501,"E","Public - Credit card at all times","NA","24 hours daily","A D M V Voyager Wright_Exp","Q",3600,30.209862,-92.0023779,2017-06-02,"2017-06-02 16:55:43 UTC","LG","NA","NA","NA","HD","228"
"229",60947,"CNG","Clean Energy - Rex Oil Conoco","6185 N Broadway","Near the intersection of 62nd Ave and Broadway. The location is northwest of the I-70/I-25 interchange and just south of Highway 36.","Denver","CO",80216,"E","Public - Credit card at all times","NA","24 hours daily; call 866-809-4869 for Clean Energy card","D M V CleanEnergy FleetOne FuelMan Voyager Wright_Exp","Q",0,39.808523,-104.987536,2017-08-02,"2017-08-02 18:48:59 UTC","P","NA","NA","NA","HD","229"
"230",61119,"CNG","Town of Hornbeck CNG","190 Nona St","NA","Leesville","LA",71446,"E","Public - Credit card at all times","NA","24 hours daily","A D M V FuelMan Wright_Exp","Q",3600,31.151719,-93.265022,2017-06-02,"2017-06-02 16:57:28 UTC","LG","NA","NA","NA","HD","230"
"231",61152,"CNG","Blue Energy Fuels","573 W 3rd St","NA","Grove","OK",74344,"E","Public - Credit card at all times","NA","24 hours daily","D M V FuelMan Voyager Wright_Exp","Q",3600,36.594241,-94.778273,2017-09-06,"2017-09-06 15:16:56 UTC","P","NA","NA","NA","HD","231"
"232",61161,"CNG","Clean Energy - City of Commerce","5926 Sheila St","LCNG Redeem station","Commerce","CA",90040,"E","Public - Credit card at all times","NA","24 hours daily; call 866-809-4869 for Clean Energy card","D M V CleanEnergy FleetOne FuelMan Voyager Wright_Exp","Q",0,33.996505,-118.151208,2017-09-06,"2017-09-06 15:14:24 UTC","P","NA","NA","NA","HD","232"
"233",61167,"CNG","Clean Energy - Fort Worth South","1075 Everman Pkwy","LCNG station","Fort Worth","TX",76140,"E","Public - Credit card at all times","NA","24 hours daily; call 866-809-4869 for Clean Energy card; Also accepts PFGift Card","A D M V CleanEnergy Comdata EFS FuelMan Speedway Tchek TCH Voyager Wright_Exp","Q",0,32.627591,-97.314361,2017-08-02,"2017-08-02 19:00:05 UTC","P","NA","NA","NA","HD","233"
"234",61168,"CNG","Clean Energy - Mesquite","3735 Forney Rd","LCNG station","Mesquite","TX",75149,"E","Public - Credit card at all times","NA","24 hours daily; call 866-809-4869 for Clean Energy card","A D M V CleanEnergy Comdata EFS FuelMan Speedway Tchek TCH Voyager Wright_Exp","Q",0,32.788653,-96.652383,2017-08-02,"2017-08-02 18:46:06 UTC","P","NA","NA","NA","HD","234"
"235",61169,"CNG","CNG 4 America - Baytown","15021 E Freeway Service Rd","Exit 803 at the I-10 Shell Travel Plaza","Cove","TX",77523,"E","Public - Credit card at all times","NA","24 hours daily","A D M V FuelMan Voyager Wright_Exp Comdata FleetOne","Q",3600,29.830522,-94.804667,2017-03-03,"2017-03-03 18:49:04 UTC","P","NA","NA","NA","HD","235"
"236",61368,"CNG","Clean Energy - ReFuel San Jose","1170 N 4th St","NA","San Jose","CA",95112,"E","Public - Credit card at all times","NA","24 hours daily; call 866-809-4869 for Clean Energy card; Class 8 tractor-trailers must unhitch trailer to reach the dispenser","A Debit D M V CleanEnergy Comdata CFN EFS FleetOne FuelMan GasCard PHH PacificPride Speedway Tchek TCH Voyager Wright_Exp","Q",3600,37.360042,-121.904057,2017-09-06,"2017-09-06 15:29:31 UTC","P","NA","NA","NA","HD","236"
"237",61369,"CNG","Clean Energy - Lathrop Food Express Inc","1262 E Madruga Rd","LCNG station","Lathrop","CA",95330,"E","Public - Credit card at all times","NA","24 hours daily; call 866-809-4869 for Clean Energy card","A D M V CleanEnergy EFS FuelMan Speedway Tchek TCH","Q",3600,37.7890634,-121.2891604,2017-07-06,"2017-07-06 17:27:52 UTC","P","NA","NA","NA","HD","237"
"238",61388,"CNG","Clean Energy - San Antonio Flying J #737","1815 N Foster Rd","Inside the Pilot Flying J center. LCNG station.","San Antonio","TX",78244,"E","Public - Credit card at all times","NA","24 hours daily; call 866-809-4869 for Clean Energy card; Also accepts PFGift Card","A D M V CleanEnergy Comdata EFS FleetOne FuelMan Speedway Tchek TCH Voyager Wright_Exp","Q",0,29.446391,-98.360726,2017-08-02,"2017-08-02 19:00:53 UTC","P","NA","NA","NA","HD","238"
"239",61431,"CNG","City of Redlands","1270 W Park Ave","LCNG facility. Between Kansas and Tennessee on Park Ave.","Redlands","CA",92373,"E","Public - Credit card at all times","NA","24 hours daily","A D M V","Q",0,34.0594487,-117.2013448,2017-10-03,"2017-10-03 16:30:54 UTC","LG","NA","NA","NA","HD","239"
"240",61481,"CNG","GAIN Clean Fuel - Timco CNG","1601 E 1st St","NA","Santa Ana","CA",92701,"E","Public - Credit card at all times","NA","24 hours daily","A D M V Voyager Wright_Exp","Q",3600,33.745816,-117.846663,2017-04-06,"2017-04-06 14:12:47 UTC","LG","NA","NA","NA","HD","240"
"241",61537,"CNG","Tesei Petroleum","1300 S Gateway Dr","At Highway 99","Madera","CA",93637,"E","Public - Call ahead","NA","7:30am-5pm M-F; Also accepts CFN card after hours","Cash A D M V CFN","Q",0,36.950703,-120.049123,2016-05-09,"2017-05-26 18:24:06 UTC","P","NA","NA","NA","HD","241"
"242",61649,"CNG","Hutch's C-Store #111","1580 N Kansas Ave","NA","Liberal","KS",67901,"E","Public - Credit card after hours","NA","24 hours daily","A D M V Cash Checks FuelMan Voyager Wright_Exp","Q",3600,37.056116,-100.922348,2017-12-05,"2017-12-05 16:38:04 UTC","P","NA","NA","NA","HD","242"
"243",61853,"CNG","First Alt Fuel Inc","425 N Bois-D-Arc","One block north of downtown Tyler","Tyler","TX",75702,"E","Public - Credit card at all times","NA","24 hours daily; contact station for First Alt Fuel card","D M V FuelMan Proprietor Voyager Wright_Exp","Q",3600,32.354553,-95.3024949,2017-08-02,"2017-08-02 18:59:02 UTC","P","NA","NA","NA","HD","243"
"244",61871,"CNG","Hutch's C-Store #120","610 NE Highway 66","NA","Sayre","OK",73662,"E","Public","NA","24 hours daily","A D M V Cash Voyager Wright_Exp","Q",3600,35.3098993,-99.6318981,2017-11-02,"2017-11-02 17:35:29 UTC","P","NA","NA","NA","HD","244"
"245",62063,"CNG","CNGnGo","4333 W 530 Rd","NA","Pryor Creek","OK",74361,"E","Public - Credit card at all times","NA","24 hours daily","A D M V Comdata EFS FleetOne FuelMan Voyager Wright_Exp","Q",3600,36.249164,-95.333829,2017-12-05,"2017-12-05 16:35:03 UTC","P","NA","NA","NA","HD","245"
"246",62066,"CNG","Bennet Steel CNGnGo","2210 Industrial Rd","West side of Industrial Rd at 96th St S. Station is public access, but located in front of Bennet Steel.","Sapulpa","OK",74066,"E","Public - Credit card at all times","NA","24 hours daily","A D M V Comdata EFS FleetOne FuelMan Voyager Wright_Exp","Q",3600,36.025192,-96.102327,2016-08-03,"2017-12-26 22:58:15 UTC","P","NA","NA","NA","HD","246"
"247",62106,"CNG","GAIN Clean Fuel - Carthage","1086 US Highway 59 S","Located at Gateway Travel Plaza. The station is located south of Carthage along Highway 59 S and the SW Loop.","Carthage","TX",75633,"E","Public - Credit card at all times","NA","24 hours daily","A D M V Comdata GasCard Proprietor Voyager Wright_Exp","Q",3600,32.127622,-94.331561,2017-08-02,"2017-08-02 19:02:27 UTC","P","NA","NA","NA","HD","247"
"248",62266,"CNG","Mannford Compressed Natural Gas","210 E Trower Blvd","Highway 51; next to Phillips 66, in front of H&R Block","Mannford","OK",74044,"E","Public - Credit card at all times","NA","24 hours daily","A D M V","Q",3600,36.1285082,-96.358462,2017-10-03,"2017-10-03 16:29:52 UTC","LG","NA","NA","NA","HD","248"
"249",62268,"CNG","Sparq - Trinidad","806 E Goddard Ave","Immediate I-25 Access, Exit 15/US-160E toward Goddard Ave. Co-located with Shell convenience store.","Trinidad","CO",81082,"E","Public - Credit card at all times","NA","24 hours daily","M V FuelMan GasCard Wright_Exp","Q",3600,37.184258,-104.499643,2017-12-05,"2017-12-05 16:33:55 UTC","P","NA","NA","NA","HD","249"
"250",62313,"CNG","Oklahoma City Solid Waste Division","11501 N Portland Ave","NA","Oklahoma City","OK",73120,"E","Public - Credit card at all times","NA","24 hours daily","A D M V FuelMan Wright_Exp","Q",3600,35.5944217,-97.5878463,2017-10-03,"2017-10-03 16:25:50 UTC","P","NA","NA","NA","HD","250"
"251",62382,"CNG","High Plains Bioenergy","3271 US Highway 54","Southeast side of U.S. Highway 54 across from the main driveway off Highway 54","Guymon","OK",73942,"E","Public - Credit card at all times","NA","24 hours daily","A D M V Voyager Wright_Exp","Q",3600,36.7065958,-101.4432073,2017-10-03,"2017-10-03 16:32:04 UTC","P","NA","NA","NA","HD","251"
"252",62398,"CNG","American Natural Gas","3542 AR-367","NA","Searcy","AR",72143,"E","Public - Credit card at all times","NA","24 hours daily","A D M V Voyager Wright_Exp","Q",3600,35.199123,-91.73261,2015-11-03,"2017-10-25 19:36:10 UTC","P","NA","NA","NA","HD","252"
"253",62454,"CNG","ampCNG","330 Farm to Market 1189","NA","Brock","TX",76087,"E","Public - Credit card at all times","NA","24 hours daily","A D M V FuelMan Voyager Wright_Exp Comdata EFS Tchek TCH Trillium","Q",3600,32.698811,-97.959199,2017-03-03,"2017-03-03 19:54:54 UTC","P","NA","NA","NA","HD","253"
"254",62543,"CNG","GAIN Clean Fuel - Aurora","19401 E 32nd Pkwy","NA","Aurora","CO",80011,"E","Public - Credit card at all times","NA","24 hours daily; contact 920-243-5856 to set up account; Also accepts company proprietary card","A D M V GasCard Voyager Wright_Exp Comdata","Q",3600,39.7606561,-104.7617949,2017-04-06,"2017-04-06 14:15:10 UTC","P","NA","NA","NA","HD","254"
"255",62741,"CNG","Domino Express #9","1303 W 3rd St","NA","Elk City","OK",73644,"E","Public","NA","24 hours daily","A D M V Cash Checks FuelMan Voyager Wright_Exp","Q",3600,35.4117249,-99.419721,2017-10-03,"2017-10-03 16:34:54 UTC","P","NA","NA","NA","HD","255"
"256",62775,"CNG","Clean Energy - Albuquerque Flying J #689","9911 Avalon Rd NW","LCNG station","Albuquerque","NM",87105,"E","Public - Credit card at all times","NA","24 hours daily; call 866-809-4869 for Clean Energy card; Also accepts PFGift Card","A D M V CleanEnergy Comdata EFS FuelMan Speedway Tchek TCH Voyager Wright_Exp","Q",0,35.07844,-106.745908,2017-08-02,"2017-08-02 18:49:03 UTC","P","NA","NA","NA","HD","256"
"257",62776,"CNG","GAIN Clean Fuel - Independence Fuel Systems","902 Mobile Dr","NA","Longview","TX",75604,"E","Public - Credit card at all times","NA","24 hours daily","A D M V FuelMan GasCard Voyager Wright_Exp","Q",3600,32.496367,-94.805668,2017-08-02,"2017-08-02 18:51:31 UTC","P","NA","NA","NA","HD","257"
"258",62907,"CNG","GAIN Clean Fuel - Forrest City","3400 Commerce Dr","NA","Forrest City","AR",72335,"E","Public - Credit card at all times","NA","24 hours daily; contact 920-243-5856 to set up account; Also accepts company proprietary card","A D M V Voyager Wright_Exp Comdata","Q",3600,35.0422886,-90.8101424,2017-04-06,"2017-04-06 14:17:29 UTC","P","NA","NA","NA","HD","258"
"259",62933,"CNG","3G CNG","3529 Combine St","NA","Paso Robles","CA",93446,"E","Public - Credit card at all times","NA","24 hours daily","M V","Q",3600,35.645091,-120.6537007,2017-06-02,"2017-06-02 16:21:51 UTC","P","NA","NA","NA","HD","259"
"260",62996,"CNG","Love's Travel Stop #614","12605 Central Ave NW","Along I-40, Exit 149.","Albuquerque","NM",87121,"E","Public","NA","24 hours daily","A D M V Cash Checks FuelMan Voyager Wright_Exp","Q",3600,35.06347,-106.784256,2017-01-11,"2017-12-20 13:37:19 UTC","P","NA","NA","NA","HD","260"
"261",62997,"CNG","Love's Travel Stop #553","1055 N Grand Canyon Blvd","North of I-40","Williams","AZ",86046,"E","Public","NA","24 hours daily","A D M V Cash Checks FuelMan Voyager Wright_Exp","Q",3600,35.262599,-112.193269,2017-01-11,"2017-12-20 13:36:21 UTC","P","NA","NA","NA","HD","261"
"262",63276,"CNG","American Natural Gas","6580 Kansas Ave","NA","Kansas City","KS",66111,"E","Public - Credit card at all times","NA","24 hours daily; Also accepts Shell card and Irving card","A D M V FuelMan GasCard Voyager Wright_Exp Comdata EFS FleetOne Tchek TCH","Q",3600,39.088403,-94.731608,2017-03-03,"2017-10-25 19:36:09 UTC","P","NA","NA","NA","HD","262"
"263",63277,"CNG","American Natural Gas","4200 Duncanville Rd","NA","Dallas","TX",75236,"E","Public - Credit card at all times","NA","24 hours daily; Also accepts Shell card and Irving card","M V Comdata EFS FuelMan GasCard Tchek TCH Voyager Wright_Exp","Q",3600,32.693713,-96.908701,2017-07-06,"2017-07-06 17:25:20 UTC","P","NA","NA","NA","HD","263"
"264",63278,"CNG","American Natural Gas","650 E Centre Park Blvd","NA","DeSoto","TX",75115,"E","Public - Credit card at all times","NA","24 hours daily; Also accepts Shell card and Irving card","M V FuelMan GasCard Voyager Wright_Exp Comdata EFS Tchek TCH","Q",3600,32.624698,-96.843268,2017-01-11,"2017-10-25 19:35:45 UTC","P","NA","NA","NA","HD","264"
"265",63447,"CNG","City of Deming","1315 W Pine St","NA","Deming","NM",88030,"E","Public - Credit card at all times","NA","24 hours daily; customers may call Bryan Reedy (575-546-8848 x129) with questions","A D M V FuelMan Voyager Wright_Exp","Q",3600,32.267478,-107.7738567,2017-10-03,"2017-10-03 16:29:34 UTC","LG","NA","NA","NA","HD","265"
"266",63576,"CNG","CNG@WORK","401 Kindleberger Rd","Located in the Fairfax Industrial Park with easy access off I-635; and in close proximity to I-29, I-35 and I-70.","Kansas City","KS",66115,"E","Public - Credit card at all times","NA","24 hours daily; Also accepts Multi Service fuel card","A D M V CFN FuelMan PHH Voyager Wright_Exp Comdata","Q",3600,39.150215,-94.617481,2017-05-04,"2017-05-04 13:16:16 UTC","P","NA","NA","NA","HD","266"
"267",63579,"CNG","Clean Energy - Winslow Flying J #612","404 Transcon Ln","LCNG station","Winslow","AZ",86047,"E","Public - Credit card at all times","NA","24 hours daily; call 866-809-4869 for Clean Energy card; Also accepts PFGift Card","A D M V CleanEnergy Comdata EFS FuelMan Speedway Tchek TCH Voyager Wright_Exp","Q",0,35.01643,-110.675005,2017-08-02,"2017-08-02 18:51:27 UTC","P","NA","NA","NA","HD","267"
"268",63600,"CNG","Sparq - U Pump It","156 N Campus Dr","At Fulton","Garden City","KS",67846,"E","Public - Credit card at all times","NA","24 hours daily","M V FuelMan GasCard Voyager Wright_Exp","Q",3600,37.9625013,-100.8473341,2017-10-03,"2017-10-03 16:30:56 UTC","P","NA","NA","NA","HD","268"
"269",63601,"CNG","Sparq - Neighbors Exxon","6050 Highway 157","Highway 157 & Sligo Rd.","Haughton","LA",71037,"P","PLANNED - not yet accessible (Public - Credit card at all times)","2018-09-15","24 hours daily","A D M V FuelMan GasCard Voyager Wright_Exp","Q",3600,32.469332,-93.509659,2017-12-05,"2017-12-05 16:39:57 UTC","P","NA","NA","NA","HD","269"
"270",63602,"CNG","City of Tulsa","7952 E 33rd St S","Adjacent to Tulsa Transit's Memorial Midtown station.","Tulsa","OK",74145,"E","Public","NA","24 hours daily","NA","Q",3600,36.114123,-95.890616,2017-08-02,"2017-08-02 19:08:08 UTC","LG","NA","NA","NA","HD","270"
"271",63603,"CNG","Bubble City Truck Stop","3125 Bloomfield Hwy","NA","Farmington","NM",87401,"E","Public","NA","5am-10pm M-Sat, 7am-9pm Sun","A D M V Cash Comdata EFS FleetOne FuelMan Tchek TCH Voyager Wright_Exp","Q",3600,36.7188108,-108.1677503,2017-10-03,"2017-10-03 16:25:27 UTC","P","NA","NA","NA","HD","271"
"272",63660,"CNG","Clean Energy - Dillon Transport","4070 S Farm-to-Market 1788","LCNG station","Midland","TX",79706,"E","Public - Credit card at all times","NA","24 hours daily; Also accepts PFGift Card","A D M V CleanEnergy Comdata EFS FuelMan Speedway Tchek TCH Voyager Wright_Exp","Q",0,31.9141313,-102.2163417,2017-08-02,"2017-08-02 18:49:00 UTC","P","NA","NA","NA","HD","272"
"273",63665,"CNG","OnCue Express #45","7850 Acre Rd","NA","Billings","OK",74630,"E","Public - Credit card at all times","NA","24 hours daily","A D M V FuelMan Voyager Wright_Exp","Q",3600,36.535661,-97.33916,2017-11-02,"2017-11-02 17:27:24 UTC","P","NA","NA","NA","HD","273"
"274",63673,"CNG","Speedy Fuel","1492 S Lorena St","NA","Los Angeles","CA",90023,"E","Public","NA","24 hours daily","M V Cash Voyager Wright_Exp","Q",3600,34.016859,-118.208994,2017-07-06,"2017-07-06 17:16:44 UTC","P","NA","NA","NA","HD","274"
"275",63680,"CNG","Clean Energy - Houston Valero","9221 Wallisville Rd","NA","Houston","TX",77013,"E","Public - Credit card at all times","NA","24 hours daily; call 866-809-4869 for Clean Energy card; Also accepts PFGift Card","A D M V CleanEnergy Comdata EFS FuelMan Speedway Tchek TCH Voyager Wright_Exp","Q",0,29.792524,-95.2656527,2017-11-02,"2017-11-02 17:36:57 UTC","P","NA","NA","NA","HD","275"
"276",63681,"CNG","Clean Energy - Waco Flying J #739","2409 S New Rd","LCNG station","Waco","TX",76711,"E","Public - Credit card at all times","NA","24 hours daily; call 866-809-4869 for Clean Energy card; Also accepts PFGift Card","A D M V CleanEnergy Comdata EFS FuelMan Speedway Tchek TCH Voyager Wright_Exp","Q",0,31.509017,-97.146246,2017-08-02,"2017-08-02 18:49:02 UTC","P","NA","NA","NA","HD","276"
"277",63757,"CNG","CNG 4 America - Austin","907 E St Johns Ave","Behind the Pollo Campero restaurant/ Sunrise Mini Mart. Notable by iron fence surrounding property. Primary signage is Pollo Campero. CNG is the only fuel sold, currently no CNG signage","Austin","TX",78752,"E","Public - Credit card at all times","NA","24 hours daily","A D M V FuelMan Voyager Wright_Exp","Q",3600,30.3312268,-97.7014257,2017-03-03,"2017-03-03 18:49:07 UTC","P","NA","NA","NA","HD","277"
"278",63816,"CNG","X3Energy","685 Tia Juana St","Station is 2.5 blocks north of East Platte Ave","Colorado Springs","CO",80909,"E","Public - Credit card at all times","NA","24 hours daily; station can accommodate most heavy-duty vehicles, except for tractor trailers.","A D M V Proprietor Voyager Wright_Exp","Q",3600,38.842479,-104.773243,2016-09-02,"2017-12-07 23:12:35 UTC","P","NA","NA","NA","HD","278"
"279",63817,"CNG","X3Energy","14827 Weld County Rd 42","Station is located at Highway 85 and WCR 42","Gilcrest","CO",80623,"E","Public - Credit card at all times","NA","24 hours daily","A D M V Proprietor Voyager Wright_Exp","Q",3600,40.289904,-104.775421,2016-09-02,"2017-12-07 23:12:30 UTC","P","NA","NA","NA","HD","279"
"280",64049,"CNG","Colorado Springs Utilities - X3Energy - Ward Alternative Energy","7790 Durant Dr","Off Woodman Rd and Duryea Dr.","Colorado Springs","CO",80920,"E","Public - Credit card at all times","NA","24 hours daily; customers can call 720-941-2791 to set up a fueling account","A D M V FuelMan Proprietor Voyager Wright_Exp","Q",3600,38.944657,-104.723893,2016-04-04,"2017-12-07 23:12:14 UTC","T","NA","NA","NA","HD","280"
"281",64208,"CNG","Love's Travel Stop #450","800 Martin Luther King Jr Dr","I-40, exit 280","West Memphis","AR",72301,"E","Public","NA","24 hours daily","A D M V Cash Checks EFS FleetOne FuelMan Tchek TCH Voyager Wright_Exp","Q",3600,35.153586,-90.137677,2016-10-04,"2017-12-20 13:22:31 UTC","P","NA","NA","NA","HD","281"
"282",64212,"CNG","Love's Travel Stop #266","3201 12th Ave NW","NA","Ardmore","OK",73401,"E","Public","NA","24 hours daily","A D M V Cash Checks EFS FleetOne FuelMan Tchek TCH Voyager Wright_Exp","Q",3600,34.187478,-97.171017,2017-01-11,"2017-12-20 03:21:52 UTC","P","NA","NA","NA","HD","282"
"283",64213,"CNG","Love's Travel Stop #255","214 S Highway 100","I-40, Exit 287","Webbers Falls","OK",74470,"E","Public","NA","24 hours daily","A D M V Cash Checks EFS FleetOne FuelMan Tchek TCH Voyager Wright_Exp","Q",3600,35.527616,-95.119289,2017-01-11,"2017-12-20 03:19:15 UTC","P","NA","NA","NA","HD","283"
"284",64214,"CNG","Titan NGV Fueling","24201 El Toro Rd","Station is located on the north side of I-5.","Lake Forest","CA",92630,"E","Public - Credit card at all times","NA","24 hours daily; station can accommodate heavy-duty vehicles, except 50 ft tractor-trailers. See http://www.titanngv.com/ for more details.","A D M V Voyager Wright_Exp","Q",3600,33.615669,-117.706694,2017-05-04,"2017-05-04 13:18:51 UTC","P","NA","NA","NA","HD","284"
"285",64318,"CNG","CNG Energy Partners - Lake Jackson","204 Medical Dr","NA","Lake Jackson","TX",77566,"E","Public - Credit card at all times","NA","24 hours daily","A D M V Comdata EFS FleetOne FuelMan GasCard PHH PacificPride Speedway Voyager Wright_Exp","Q",3600,29.0311094,-95.4517341,2017-11-02,"2017-11-02 17:34:49 UTC","LG","NA","NA","NA","HD","285"
